city,country,iso2,latitude,longitude,time_zone,population
Andorra la Vella,Andorra,AD,42.5,1.5,Europe/Andorra,22615
Sant Pere,Andorra,AD,42.5833,1.65,Europe/Andorra,22256
Escaldes-Engordany,Andorra,AD,42.5089,1.5408,Europe/Andorra,15506
Encamp,Andorra,AD,42.5361,1.5828,Europe/Andorra,12826
La Massana,Andorra,AD,42.5442,1.5164,Europe/Andorra,11591
Sant Julià de Lòria,Andorra,AD,42.47,1.49,Europe/Andorra,9915
Canillo,Andorra,AD,42.5664,1.6009,Europe/Andorra,5781
Ordino,Andorra,AD,42.5562,1.5332,Europe/Andorra,4858
Dubai,United Arab Emirates,AE,25.2697,55.3094,Asia/Dubai,4945000
Abu Dhabi,United Arab Emirates,AE,24.4511,54.3969,Asia/Dubai,1570000
Sharjah,United Arab Emirates,AE,25.3375,55.4119,Asia/Dubai,1247749
Al ‘Ayn,United Arab Emirates,AE,24.2075,55.7447,Asia/Dubai,766936
‘Ajmān,United Arab Emirates,AE,25.3994,55.4797,Asia/Dubai,490035
Ra’s al Khaymah,United Arab Emirates,AE,25.7851,55.9479,Asia/Dubai,115949
Al Fujayrah,United Arab Emirates,AE,25.1222,56.3344,Asia/Dubai,93673
Kalbā,United Arab Emirates,AE,25.0513,56.3542,Asia/Dubai,54876
Umm al Qaywayn,United Arab Emirates,AE,25.5598,55.5572,Asia/Dubai,44411
Khawr Fakkān,United Arab Emirates,AE,25.3392,56.3561,Asia/Dubai,39151
Madīnat Zāyid,United Arab Emirates,AE,23.6522,53.6536,Asia/Dubai,29095
Al Jazīrah al Ḩamrā’,United Arab Emirates,AE,25.7089,55.7972,Asia/Dubai,10190
Kabul,Afghanistan,AF,34.5328,69.1658,Asia/Kabul,5333284
Kandahār,Afghanistan,AF,31.6207,65.7159,Asia/Kabul,614254
Mazār-e Sharīf,Afghanistan,AF,36.7,67.1167,Asia/Kabul,568013
Herāt,Afghanistan,AF,34.3419,62.2031,Asia/Kabul,556205
Kunduz,Afghanistan,AF,36.7289,68.8569,Asia/Kabul,356536
Jalālābād,Afghanistan,AF,34.4303,70.4528,Asia/Kabul,318733
Tāluqān,Afghanistan,AF,36.7358,69.5347,Asia/Kabul,258758
Lashkar Gāh,Afghanistan,AF,31.5938,64.3716,Asia/Kabul,201546
Shibirghān,Afghanistan,AF,36.665,65.752,Asia/Kabul,175599
Chārīkār,Afghanistan,AF,35.0167,69.1667,Asia/Kabul,171200
Khōst,Afghanistan,AF,33.3333,69.9167,Asia/Kabul,160214
Ghaznī,Afghanistan,AF,33.5492,68.4233,Asia/Kabul,143379
Pul-e Khumrī,Afghanistan,AF,35.95,68.7,Asia/Kabul,139252
Spīn Bōldak,Afghanistan,AF,31.0081,66.3981,Asia/Kabul,123945
Maīmanah,Afghanistan,AF,35.9333,64.75,Asia/Kabul,108049
Baghlān,Afghanistan,AF,36.1328,68.7,Asia/Kabul,89625
Bāzār-e Yakāwlang,Afghanistan,AF,34.7333,66.9667,Asia/Kabul,76000
Gardēz,Afghanistan,AF,33.5931,69.2297,Asia/Kabul,70000
Tarīn Kōṯ,Afghanistan,AF,32.6242,65.8767,Asia/Kabul,70000
Māmā Khēl,Afghanistan,AF,34.25,70.01,Asia/Kabul,66392
Faīẕābād,Afghanistan,AF,37.1166,70.58,Asia/Kabul,64704
Farāh,Afghanistan,AF,32.3436,62.1194,Asia/Kabul,54000
Ghōriyān,Afghanistan,AF,34.3448,61.4932,Asia/Kabul,54000
Sar-e Pul,Afghanistan,AF,36.2214,65.9278,Asia/Kabul,51075
Qalāt,Afghanistan,AF,32.1061,66.9069,Asia/Kabul,49158
Saint John’s,Antigua and Barbuda,AG,17.1211,-61.8447,America/Antigua,21394
The Valley,Anguilla,AI,18.2208,-63.0517,America/Anguilla,1067
Tirana,Albania,AL,41.3283,19.8181,Europe/Tirane,526017
Durrës,Albania,AL,41.3163,19.4474,Europe/Tirane,153614
Elbasan,Albania,AL,41.1131,20.0818,Europe/Tirane,66834
Vlorë,Albania,AL,40.45,19.4833,Europe/Tirane,66320
Kamëz,Albania,AL,41.3833,19.7667,Europe/Tirane,61739
Shkodër,Albania,AL,42.0681,19.5121,Europe/Tirane,61633
Fier,Albania,AL,40.7167,19.55,Europe/Tirane,52926
Korçë,Albania,AL,40.6167,20.7667,Europe/Tirane,43254
Berat,Albania,AL,40.7049,19.9497,Europe/Tirane,40665
Sarandë,Albania,AL,39.875,20.01,Europe/Tirane,22613
Lushnjë,Albania,AL,40.9333,19.7,Europe/Tirane,22400
Pogradec,Albania,AL,40.9,20.65,Europe/Tirane,20848
Kavajë,Albania,AL,41.1833,19.55,Europe/Tirane,20192
Gjirokastër,Albania,AL,40.0758,20.1389,Europe/Tirane,19836
Fushë-Krujë,Albania,AL,41.4833,19.7167,Europe/Tirane,18477
Laç,Albania,AL,41.6353,19.7131,Europe/Tirane,17086
Sukth,Albania,AL,41.3833,19.5333,Europe/Tirane,15966
Buçimas,Albania,AL,40.8914,20.6814,Europe/Tirane,15687
Kukës,Albania,AL,42.0758,20.4231,Europe/Tirane,15643
Lezhë,Albania,AL,41.7805,19.6434,Europe/Tirane,15510
Patos,Albania,AL,40.6841,19.6194,Europe/Tirane,15397
Shijak,Albania,AL,41.3456,19.5672,Europe/Tirane,14138
Peshkopi,Albania,AL,41.6837,20.4119,Europe/Tirane,13251
Librazhd-Qendër,Albania,AL,41.1969,20.3356,Europe/Tirane,12691
Kuçovë,Albania,AL,40.8039,19.9144,Europe/Tirane,12654
Yerevan,Armenia,AM,40.1814,44.5144,Asia/Yerevan,1106300
Gyumri,Armenia,AM,40.7833,43.8333,Asia/Yerevan,121976
Vanadzor,Armenia,AM,40.8128,44.4883,Asia/Yerevan,90525
Hrazdan,Armenia,AM,40.5,44.7667,Asia/Yerevan,52283
Ejmiatsin,Armenia,AM,40.1728,44.2925,Asia/Yerevan,46540
Abovyan,Armenia,AM,40.2739,44.6256,Asia/Yerevan,44400
Armavir,Armenia,AM,40.1544,44.0381,Asia/Yerevan,38635
Kapan,Armenia,AM,39.2011,46.415,Asia/Yerevan,32780
Ashtarak,Armenia,AM,40.3,44.4,Asia/Yerevan,21600
Masis,Armenia,AM,40.067,44.438,Asia/Yerevan,21376
Artashat,Armenia,AM,39.9539,44.5506,Asia/Yerevan,21300
Charentsavan,Armenia,AM,40.4097,44.6431,Asia/Yerevan,20363
Sevan,Armenia,AM,40.555,44.9536,Asia/Yerevan,19229
Ijevan,Armenia,AM,40.8756,45.1492,Asia/Yerevan,19200
Gavarr,Armenia,AM,40.3667,45.1333,Asia/Yerevan,17741
Artik,Armenia,AM,40.6192,43.9721,Asia/Yerevan,17647
Goris,Armenia,AM,39.5111,46.3417,Asia/Yerevan,17113
Dilijan,Armenia,AM,40.7408,44.8631,Asia/Yerevan,16600
Sisian,Armenia,AM,39.5208,46.0322,Asia/Yerevan,14894
Vedi,Armenia,AM,39.91,44.73,Asia/Yerevan,13600
Stepanavan,Armenia,AM,41.0075,44.3867,Asia/Yerevan,13086
Alaverdi,Armenia,AM,41.095,44.6558,Asia/Yerevan,13000
Martuni,Armenia,AM,40.14,45.3064,Asia/Yerevan,12894
Spitak,Armenia,AM,40.8372,44.2675,Asia/Yerevan,12881
Vardenis,Armenia,AM,40.18,45.72,Asia/Yerevan,12685
Luanda,Angola,AO,-8.8383,13.2344,Africa/Luanda,9051000
Lubango,Angola,AO,-14.9167,13.5,Africa/Luanda,903564
Huambo,Angola,AO,-12.7667,15.7333,Africa/Luanda,836293
Cabinda,Angola,AO,-5.5667,12.2,Africa/Luanda,739182
Malanje,Angola,AO,-9.5469,16.3387,Africa/Luanda,604215
Uíge,Angola,AO,-7.6087,15.0613,Africa/Luanda,599000
Benguela,Angola,AO,-12.58,13.4078,Africa/Luanda,512886
Cuito,Angola,AO,-12.3833,16.9333,Africa/Luanda,512706
Lobito,Angola,AO,-12.35,13.5464,Africa/Luanda,436467
Saurimo,Angola,AO,-9.6589,20.3934,Africa/Luanda,393000
Menongue,Angola,AO,-14.6556,17.6842,Africa/Luanda,382635
Belas,Angola,AO,-9.0583,13.1539,Africa/Luanda,381861
Luena,Angola,AO,-11.783,19.913,Africa/Luanda,357413
Vila Teixeira da Silva,Angola,AO,-12.1958,15.8556,Africa/Luanda,294494
Talatona,Angola,AO,-8.9167,13.1833,Africa/Luanda,292919
Sumbe,Angola,AO,-11.2052,13.8417,Africa/Luanda,279968
Caála,Angola,AO,-12.85,15.55,Africa/Luanda,279792
Gabela,Angola,AO,-10.85,14.3667,Africa/Luanda,271843
Andulo,Angola,AO,-11.4926,16.7035,Africa/Luanda,258161
Moçâmedes,Angola,AO,-15.1953,12.1508,Africa/Luanda,255000
Uacu Cungo,Angola,AO,-11.3583,15.1194,Africa/Luanda,225520
Soio,Angola,AO,-6.1333,12.3667,Africa/Luanda,200920
Tchitato,Angola,AO,-7.345,20.8198,Africa/Luanda,195136
Mbanza Kongo,Angola,AO,-6.27,14.24,Africa/Luanda,180329
Dundo,Angola,AO,-7.3801,20.8351,Africa/Luanda,177604
Buenos Aires,Argentina,AR,-34.5997,-58.3819,America/Argentina/Buenos_Aires,16710000
Córdoba,Argentina,AR,-31.4167,-64.1833,America/Argentina/Cordoba,1505250
Rosario,Argentina,AR,-32.9575,-60.6394,America/Argentina/Cordoba,1193605
La Plata,Argentina,AR,-34.9333,-57.95,America/Argentina/Buenos_Aires,904789
Salta,Argentina,AR,-24.7883,-65.4106,America/Argentina/Salta,627704
San Miguel de Tucumán,Argentina,AR,-26.8167,-65.2167,America/Argentina/Tucuman,601888
Mar del Plata,Argentina,AR,-38.0,-57.55,America/Argentina/Buenos_Aires,593337
San Juan,Argentina,AR,-31.5375,-68.5364,America/Argentina/San_Juan,471389
Lanús,Argentina,AR,-34.7,-58.4,America/Argentina/Buenos_Aires,459263
Corrientes,Argentina,AR,-27.4833,-58.8167,America/Argentina/Cordoba,430170
Santa Fe,Argentina,AR,-31.6333,-60.7,America/Argentina/Cordoba,423212
Avellaneda,Argentina,AR,-34.6625,-58.3678,America/Argentina/Buenos_Aires,366117
San Salvador de Jujuy,Argentina,AR,-24.1856,-65.2994,America/Argentina/Jujuy,312446
Santiago del Estero,Argentina,AR,-27.7844,-64.2669,America/Argentina/Cordoba,311506
Resistencia,Argentina,AR,-27.4514,-58.9867,America/Argentina/Cordoba,300640
Bahía Blanca,Argentina,AR,-38.7182,-62.2673,America/Argentina/Buenos_Aires,299101
Neuquén,Argentina,AR,-38.9518,-68.0592,America/Argentina/Salta,288896
Posadas,Argentina,AR,-27.3667,-55.8969,America/Argentina/Cordoba,275988
Paraná,Argentina,AR,-31.7331,-60.5297,America/Argentina/Cordoba,271304
Formosa,Argentina,AR,-26.1847,-58.1758,America/Argentina/Cordoba,264452
Quilmes,Argentina,AR,-34.7167,-58.2667,America/Argentina/Buenos_Aires,262379
Merlo,Argentina,AR,-34.6653,-58.7275,America/Argentina/Buenos_Aires,244168
González Catán,Argentina,AR,-34.7708,-58.6464,America/Argentina/Buenos_Aires,238067
José C. Paz,Argentina,AR,-34.5167,-58.7667,America/Argentina/Buenos_Aires,216637
San Rafael,Argentina,AR,-34.6175,-68.3356,America/Argentina/Mendoza,215020
Pago Pago,American Samoa,AS,-14.274,-170.7046,Pacific/Pago_Pago,12576
Vienna,Austria,AT,48.2083,16.3725,Europe/Vienna,2223236
Graz,Austria,AT,47.0708,15.4386,Europe/Vienna,292630
Linz,Austria,AT,48.3058,14.2864,Europe/Vienna,211944
Salzburg,Austria,AT,47.8,13.045,Europe/Vienna,155021
Innsbruck,Austria,AT,47.2683,11.3933,Europe/Vienna,132499
Klagenfurt,Austria,AT,46.6167,14.3,Europe/Vienna,101403
Wels,Austria,AT,48.15,14.0167,Europe/Vienna,65303
Villach,Austria,AT,46.6167,13.8333,Europe/Vienna,65127
Sankt Pölten,Austria,AT,48.2,15.6167,Europe/Vienna,55514
Dornbirn,Austria,AT,47.4167,9.75,Europe/Vienna,48067
Wiener Neustadt,Austria,AT,47.8167,16.25,Europe/Vienna,44461
Steyr,Austria,AT,48.05,14.4167,Europe/Vienna,38034
Feldkirch,Austria,AT,47.2381,9.5983,Europe/Vienna,36708
Bregenz,Austria,AT,47.505,9.7492,Europe/Vienna,29476
Leonding,Austria,AT,48.2792,14.2528,Europe/Vienna,28698
Klosterneuburg,Austria,AT,48.3042,16.3167,Europe/Vienna,27058
Baden,Austria,AT,48.0075,16.2344,Europe/Vienna,26286
Krems an der Donau,Austria,AT,48.4167,15.6167,Europe/Vienna,25272
Wolfsberg,Austria,AT,46.8419,14.8408,Europe/Vienna,25035
Leoben,Austria,AT,47.3817,15.0972,Europe/Vienna,24645
Lustenau,Austria,AT,47.4271,9.6711,Europe/Vienna,24603
Traun,Austria,AT,48.2217,14.2397,Europe/Vienna,24477
Amstetten,Austria,AT,48.1167,14.8667,Europe/Vienna,23569
Kapfenberg,Austria,AT,47.4394,15.2894,Europe/Vienna,22798
Hallein,Austria,AT,47.6667,13.0833,Europe/Vienna,21150
Sydney,Australia,AU,-33.8678,151.21,Australia/Sydney,5450496
Melbourne,Australia,AU,-37.8142,144.9631,Australia/Melbourne,5350705
Brisbane,Australia,AU,-27.4678,153.0278,Australia/Brisbane,2706966
Perth,Australia,AU,-31.9558,115.8597,Australia/Perth,2141834
Adelaide,Australia,AU,-34.9275,138.6,Australia/Adelaide,1387290
Gold Coast,Australia,AU,-28.0167,153.4,Australia/Brisbane,607665
Canberra,Australia,AU,-35.2931,149.1269,Australia/Sydney,381488
Central Coast,Australia,AU,-33.2992,151.1922,Australia/Sydney,325255
Wollongong,Australia,AU,-34.4331,150.8831,Australia/Sydney,261896
Ipswich,Australia,AU,-27.6167,152.7667,Australia/Brisbane,232930
Hobart,Australia,AU,-42.8833,147.3167,Australia/Hobart,197451
Geelong,Australia,AU,-38.15,144.35,Australia/Melbourne,180239
Townsville,Australia,AU,-19.2622,146.8158,Australia/Brisbane,173724
Newcastle,Australia,AU,-32.9167,151.75,Australia/Sydney,152984
Cairns,Australia,AU,-16.9256,145.7753,Australia/Brisbane,146778
Darwin,Australia,AU,-12.4381,130.8411,Australia/Darwin,139902
Ballarat,Australia,AU,-37.5608,143.8475,Australia/Melbourne,116201
Toowoomba,Australia,AU,-27.55,151.95,Australia/Brisbane,108398
Mandurah,Australia,AU,-32.5289,115.7231,Australia/Perth,107643
Bendigo,Australia,AU,-36.75,144.2667,Australia/Melbourne,103034
Maitland,Australia,AU,-32.7317,151.5511,Australia/Sydney,89597
Launceston,Australia,AU,-41.4444,147.1378,Australia/Hobart,80943
Mackay,Australia,AU,-21.1411,149.1861,Australia/Brisbane,80455
Melton,Australia,AU,-37.6833,144.5833,Australia/Melbourne,76346
Bunbury,Australia,AU,-33.3272,115.6369,Australia/Perth,75196
Oranjestad,Aruba,AW,12.5186,-70.0358,America/Aruba,28658
Tanki Leendert,Aruba,AW,12.5418,-70.022,America/Aruba,21495
Baku,Azerbaijan,AZ,40.3667,49.8352,Asia/Baku,2300500
Sumqayıt,Azerbaijan,AZ,40.5961,49.67,Asia/Baku,341200
Gəncə,Azerbaijan,AZ,40.6828,46.3606,Asia/Baku,331400
Mingəçevir,Azerbaijan,AZ,40.764,47.0595,Asia/Baku,106100
Xırdalan,Azerbaijan,AZ,40.4486,49.7564,Asia/Baku,100900
Keşlə,Azerbaijan,AZ,40.3978,49.8986,Asia/Baku,100626
Naxçıvan,Azerbaijan,AZ,39.2089,45.4122,Asia/Baku,95100
Şatrovka,Azerbaijan,AZ,39.9319,48.9203,Asia/Baku,86500
Qaraçuxur,Azerbaijan,AZ,40.3969,49.9733,Asia/Baku,85900
Bakıxanov,Azerbaijan,AZ,40.4217,49.9644,Asia/Baku,71600
Şəki,Azerbaijan,AZ,41.1919,47.1706,Asia/Baku,68360
Yevlax,Azerbaijan,AZ,40.6172,47.15,Asia/Baku,59036
M.Ə. Rəsulzadə,Azerbaijan,AZ,40.4344,49.8336,Asia/Baku,51800
Lənkəran,Azerbaijan,AZ,38.7536,48.8511,Asia/Baku,51300
Xankəndi,Azerbaijan,AZ,39.8153,46.7519,Asia/Baku,49848
Biləcəri,Azerbaijan,AZ,40.4444,49.8057,Asia/Baku,45008
Ağcabədi,Azerbaijan,AZ,40.0489,47.4502,Asia/Baku,43000
Şəmkir,Azerbaijan,AZ,40.8297,46.0189,Asia/Baku,40600
Xaçmaz,Azerbaijan,AZ,41.4681,48.8028,Asia/Baku,39900
Şamaxı,Azerbaijan,AZ,40.6339,48.6392,Asia/Baku,39600
Bərdə,Azerbaijan,AZ,40.3831,47.1186,Asia/Baku,38500
Binəqədi,Azerbaijan,AZ,40.4758,49.8222,Asia/Baku,37100
Göyçay,Azerbaijan,AZ,40.6553,47.7389,Asia/Baku,36200
Lökbatan,Azerbaijan,AZ,40.3272,49.73,Asia/Baku,35523
Mərdəkan,Azerbaijan,AZ,40.4918,50.1429,Asia/Baku,32084
Sarajevo,Bosnia and Herzegovina,BA,43.8564,18.4131,Europe/Sarajevo,394002
Banja Luka,Bosnia and Herzegovina,BA,44.7725,17.1925,Europe/Sarajevo,185042
Tuzla,Bosnia and Herzegovina,BA,44.5391,18.6752,Europe/Sarajevo,110979
Mostar,Bosnia and Herzegovina,BA,43.3436,17.8075,Europe/Sarajevo,105448
Prijedor,Bosnia and Herzegovina,BA,44.9667,16.7,Europe/Sarajevo,89397
Zenica,Bosnia and Herzegovina,BA,44.2017,17.9039,Europe/Sarajevo,70553
Doboj,Bosnia and Herzegovina,BA,44.7333,18.1333,Europe/Sarajevo,68514
Ilidža,Bosnia and Herzegovina,BA,43.8331,18.3039,Europe/Sarajevo,66730
Živinice,Bosnia and Herzegovina,BA,44.45,18.65,Europe/Sarajevo,57765
Bihać,Bosnia and Herzegovina,BA,44.8147,15.8692,Europe/Sarajevo,56261
Bijeljina,Bosnia and Herzegovina,BA,44.7567,19.2156,Europe/Sarajevo,45291
Tešanj,Bosnia and Herzegovina,BA,44.6135,17.9894,Europe/Sarajevo,43063
Brčko,Bosnia and Herzegovina,BA,44.8783,18.8092,Europe/Sarajevo,39893
Žepče,Bosnia and Herzegovina,BA,44.4333,18.0333,Europe/Sarajevo,31582
Trebinje,Bosnia and Herzegovina,BA,42.7089,18.3217,Europe/Sarajevo,31433
Široki Brijeg,Bosnia and Herzegovina,BA,43.3667,17.5833,Europe/Sarajevo,28929
Ljubuški,Bosnia and Herzegovina,BA,43.1981,17.5467,Europe/Sarajevo,28184
Čapljina,Bosnia and Herzegovina,BA,43.11,17.7,Europe/Sarajevo,28122
Banovići,Bosnia and Herzegovina,BA,44.4089,18.5287,Europe/Sarajevo,26590
Vogošća,Bosnia and Herzegovina,BA,43.9,18.35,Europe/Sarajevo,26343
Hadžići,Bosnia and Herzegovina,BA,43.8236,18.2211,Europe/Sarajevo,23891
Pale,Bosnia and Herzegovina,BA,43.8167,18.5667,Europe/Sarajevo,22282
Posušje,Bosnia and Herzegovina,BA,43.4722,17.3267,Europe/Sarajevo,20477
Ilijaš,Bosnia and Herzegovina,BA,43.9583,18.2667,Europe/Sarajevo,19603
Busovača,Bosnia and Herzegovina,BA,44.0978,17.8783,Europe/Sarajevo,18488
Bridgetown,Barbados,BB,13.0975,-59.6167,America/Barbados,98511
Cave Hill,Barbados,BB,13.3042,-59.5853,America/Barbados,9758
Dhaka,Bangladesh,BD,23.7289,90.3944,Asia/Dhaka,19134000
Chattogram,Bangladesh,BD,22.335,91.8325,Asia/Dhaka,5253312
Gāzipura,Bangladesh,BD,23.9889,90.375,Asia/Dhaka,2677715
Nārāyanganj,Bangladesh,BD,23.6167,90.5,Asia/Dhaka,967951
Khulna,Bangladesh,BD,22.8167,89.55,Asia/Dhaka,928891
Sylhet,Bangladesh,BD,24.9,91.8667,Asia/Dhaka,712288
Rangapukur,Bangladesh,BD,25.5206,89.2147,Asia/Dhaka,708570
Comilla,Bangladesh,BD,23.45,91.2,Asia/Dhaka,634654
Rājshāhi,Bangladesh,BD,24.3667,88.6,Asia/Dhaka,552791
Chauddagram,Bangladesh,BD,23.22,91.3,Asia/Dhaka,501815
Tungi,Bangladesh,BD,23.8833,90.4,Asia/Dhaka,476350
Barura,Bangladesh,BD,23.36,91.05,Asia/Dhaka,456341
Sirājganj,Bangladesh,BD,24.45,89.7167,Asia/Dhaka,450000
Bogra,Bangladesh,BD,24.85,89.3667,Asia/Dhaka,443742
Mymensingh,Bangladesh,BD,24.75,90.4167,Asia/Dhaka,436857
Barishal,Bangladesh,BD,22.7,90.3667,Asia/Dhaka,419484
Savar,Bangladesh,BD,23.8482,90.2577,Asia/Dhaka,384105
Sherpur,Bangladesh,BD,24.665,89.419,Asia/Dhaka,383539
Companiganj,Bangladesh,BD,22.875,91.2833,Asia/Dhaka,301310
Rangpur,Bangladesh,BD,25.75,89.2444,Asia/Dhaka,294265
Sonāgāzi,Bangladesh,BD,22.8492,91.3928,Asia/Dhaka,290667
Brāhmanbāria,Bangladesh,BD,23.9723,91.1099,Asia/Dhaka,268279
Srīpur,Bangladesh,BD,24.2,90.4667,Asia/Dhaka,258973
Siddhirganj,Bangladesh,BD,23.6833,90.5167,Asia/Dhaka,256760
Bānchpār,Bangladesh,BD,23.2,90.8,Asia/Dhaka,241799
Brussels,Belgium,BE,50.8333,4.3333,Europe/Brussels,1249597
Antwerp,Belgium,BE,51.2206,4.4003,Europe/Brussels,565039
Gent,Belgium,BE,51.0536,3.7253,Europe/Brussels,272657
Charleroi,Belgium,BE,50.4095,4.4525,Europe/Brussels,204322
Liège,Belgium,BE,50.6397,5.5706,Europe/Brussels,195278
Schaarbeek,Belgium,BE,50.8675,4.3736,Europe/Brussels,132799
Anderlecht,Belgium,BE,50.8392,4.3297,Europe/Brussels,120887
Bruges,Belgium,BE,51.2089,3.2242,Europe/Brussels,118509
Namur,Belgium,BE,50.4667,4.8667,Europe/Brussels,115330
Moortebeek,Belgium,BE,50.8455,4.2862,Europe/Brussels,97979
Sint-Jans-Molenbeek,Belgium,BE,50.8547,4.3386,Europe/Brussels,97979
Mons,Belgium,BE,50.4547,3.9525,Europe/Brussels,95299
Aalst,Belgium,BE,50.9383,4.0391,Europe/Brussels,88854
Ixelles,Belgium,BE,50.8331,4.3669,Europe/Brussels,87632
Mechelen,Belgium,BE,51.0281,4.4803,Europe/Brussels,86921
Deurne,Belgium,BE,51.2247,4.4625,Europe/Brussels,85283
La Louvière,Belgium,BE,50.4778,4.1881,Europe/Brussels,80986
Sint-Niklaas,Belgium,BE,51.1644,4.1392,Europe/Brussels,80167
Kortrijk,Belgium,BE,50.8275,3.2658,Europe/Brussels,77741
Hasselt,Belgium,BE,50.9304,5.3383,Europe/Brussels,77651
Ostend,Belgium,BE,51.2258,2.9194,Europe/Brussels,71557
Tournai,Belgium,BE,50.6069,3.3896,Europe/Brussels,69554
Genk,Belgium,BE,50.9653,5.5006,Europe/Brussels,66110
Roeselare,Belgium,BE,50.9447,3.1233,Europe/Brussels,64495
Seraing,Belgium,BE,50.5986,5.5122,Europe/Brussels,64270
Ouagadougou,Burkina Faso,BF,12.3686,-1.5275,Africa/Ouagadougou,3063271
Bobo-Dioulasso,Burkina Faso,BF,11.1833,-4.2833,Africa/Ouagadougou,903887
Koudougou,Burkina Faso,BF,12.25,-2.3667,Africa/Ouagadougou,160207
Ouahigouya,Burkina Faso,BF,13.5833,-2.4167,Africa/Ouagadougou,124580
Kaya,Burkina Faso,BF,13.0833,-1.0833,Africa/Ouagadougou,122949
Banfora,Burkina Faso,BF,10.6308,-4.7589,Africa/Ouagadougou,117200
Pouytenga,Burkina Faso,BF,12.25,-0.4333,Africa/Ouagadougou,99950
Houndé,Burkina Faso,BF,11.5,-3.5167,Africa/Ouagadougou,87154
Fada Ngourma,Burkina Faso,BF,12.05,0.3667,Africa/Ouagadougou,73200
Dédougou,Burkina Faso,BF,12.4667,-3.4667,Africa/Ouagadougou,63617
Djibo,Burkina Faso,BF,14.1011,-1.6306,Africa/Ouagadougou,61456
Tenkodogo,Burkina Faso,BF,11.7833,-0.3667,Africa/Ouagadougou,58600
Kongoussi,Burkina Faso,BF,13.3333,-1.5333,Africa/Ouagadougou,53641
Titao,Burkina Faso,BF,13.7667,-2.0736,Africa/Ouagadougou,48242
Dori,Burkina Faso,BF,14.0328,-0.0348,Africa/Ouagadougou,46521
Koupéla,Burkina Faso,BF,12.1794,-0.3517,Africa/Ouagadougou,45900
Gaoua,Burkina Faso,BF,10.3167,-3.1667,Africa/Ouagadougou,45189
Garango,Burkina Faso,BF,11.8047,-0.5489,Africa/Ouagadougou,45150
Tanghin-Dassouri,Burkina Faso,BF,12.2747,-1.7164,Africa/Ouagadougou,43675
Gourcy,Burkina Faso,BF,13.2063,-2.3586,Africa/Ouagadougou,40144
Yako,Burkina Faso,BF,12.9667,-2.2667,Africa/Ouagadougou,38689
Bindé,Burkina Faso,BF,11.75,-1.09,Africa/Ouagadougou,36518
Zorgo,Burkina Faso,BF,12.25,-0.6167,Africa/Ouagadougou,35406
Réo,Burkina Faso,BF,12.3167,-2.4667,Africa/Ouagadougou,33893
Niangoloko,Burkina Faso,BF,10.2833,-4.9167,Africa/Ouagadougou,33500
Sofia,Bulgaria,BG,42.6979,23.3217,Europe/Sofia,1531867
Plovdiv,Bulgaria,BG,42.1434,24.751,Europe/Sofia,329489
Varna,Bulgaria,BG,43.2114,27.9111,Europe/Sofia,318737
Burgas,Bulgaria,BG,42.503,27.4702,Europe/Sofia,189014
Stara Zagora,Bulgaria,BG,42.4333,25.65,Europe/Sofia,142746
Ruse,Bulgaria,BG,43.8445,25.9539,Europe/Sofia,137159
Sliven,Bulgaria,BG,42.6833,26.3333,Europe/Sofia,110470
Pleven,Bulgaria,BG,43.4167,24.6167,Europe/Sofia,109080
Pazardzhik,Bulgaria,BG,42.1935,24.3328,Europe/Sofia,90309
Shumen,Bulgaria,BG,43.2746,26.9349,Europe/Sofia,85410
Pernik,Bulgaria,BG,42.6,23.033,Europe/Sofia,81170
Haskovo,Bulgaria,BG,41.933,25.567,Europe/Sofia,78812
Veliko Tarnovo,Bulgaria,BG,43.0787,25.6283,Europe/Sofia,76834
Dobrich,Bulgaria,BG,43.5667,27.8333,Europe/Sofia,69434
Blagoevgrad,Bulgaria,BG,42.0227,23.0975,Europe/Sofia,69265
Kardzhali,Bulgaria,BG,41.65,25.367,Europe/Sofia,65935
Kazanlak,Bulgaria,BG,42.617,25.4,Europe/Sofia,63529
Kyustendil,Bulgaria,BG,42.2797,22.687,Europe/Sofia,61642
Vratsa,Bulgaria,BG,43.2121,23.5444,Europe/Sofia,60361
Yambol,Bulgaria,BG,42.4833,26.5,Europe/Sofia,59364
Asenovgrad,Bulgaria,BG,42.0167,24.8667,Europe/Sofia,56859
Gabrovo,Bulgaria,BG,42.8742,25.3178,Europe/Sofia,54608
Targovishte,Bulgaria,BG,43.25,26.583,Europe/Sofia,47823
Vidin,Bulgaria,BG,43.9887,22.8741,Europe/Sofia,46269
Razgrad,Bulgaria,BG,43.5409,26.5288,Europe/Sofia,44894
Manama,Bahrain,BH,26.2167,50.5833,Asia/Bahrain,727000
Al Muḩarraq,Bahrain,BH,26.25,50.6167,Asia/Bahrain,176583
Madīnat Ḩamad,Bahrain,BH,26.1128,50.5139,Asia/Bahrain,133550
Sitrah,Bahrain,BH,26.1547,50.6206,Asia/Bahrain,72601
Jidd Ḩafş,Bahrain,BH,26.2242,50.5394,Asia/Bahrain,66588
Madīnat ‘Īsá,Bahrain,BH,26.1736,50.5478,Asia/Bahrain,61293
Ad Dirāz,Bahrain,BH,26.2186,50.4756,Asia/Bahrain,18000
Al Hamalah,Bahrain,BH,26.1497,50.4653,Asia/Bahrain,18000
Al Mālikīyah,Bahrain,BH,26.1008,50.4878,Asia/Bahrain,14800
Karrānah,Bahrain,BH,26.2306,50.5108,Asia/Bahrain,12000
Bujumbura,Burundi,BI,-3.3825,29.3611,Africa/Bujumbura,1143202
Gitega,Burundi,BI,-3.4271,29.9246,Africa/Bujumbura,135467
Gitega,Burundi,BI,-3.4283,29.925,Africa/Bujumbura,135467
Ruyigi,Burundi,BI,-3.3244,30.1491,Africa/Bujumbura,44220
Ngozi,Burundi,BI,-2.9075,29.8306,Africa/Bujumbura,39884
Rumonge,Burundi,BI,-3.9667,29.4333,Africa/Bujumbura,35931
Zanandore,Burundi,BI,-3.25,30.1167,Africa/Bujumbura,27867
Cibitoke,Burundi,BI,-2.8883,29.1197,Africa/Bujumbura,23885
Kayanza,Burundi,BI,-2.9221,29.6293,Africa/Bujumbura,21767
Bubanza,Burundi,BI,-3.0833,29.4,Africa/Bujumbura,20031
Gatumba,Burundi,BI,-3.3333,29.25,Africa/Bujumbura,11700
Karuzi,Burundi,BI,-3.1014,30.165,Africa/Bujumbura,10317
Kirundo,Burundi,BI,-2.5833,30.1,Africa/Bujumbura,10024
Muyinga,Burundi,BI,-2.85,30.3333,Africa/Bujumbura,9609
Makamba,Burundi,BI,-4.1333,29.8,Africa/Bujumbura,9396
Ruyigi,Burundi,BI,-3.4667,30.25,Africa/Bujumbura,7139
Rutana,Burundi,BI,-3.9236,30.0061,Africa/Bujumbura,5865
Muramvya,Burundi,BI,-3.25,29.6,Africa/Bujumbura,5458
Cankuzo,Burundi,BI,-3.2194,30.5528,Africa/Bujumbura,3624
Isale,Burundi,BI,-3.3444,29.4833,Africa/Bujumbura,0
Banikoara,Benin,BJ,11.3,2.4333,Africa/Porto-Novo,867463
Cotonou,Benin,BJ,6.3667,2.4167,Africa/Porto-Novo,780000
Godomè,Benin,BJ,6.3667,2.35,Africa/Porto-Novo,253262
Djougou,Benin,BJ,9.7,1.6667,Africa/Porto-Novo,237040
Porto-Novo,Benin,BJ,6.4833,2.6167,Africa/Porto-Novo,234168
Tchaourou,Benin,BJ,8.8833,2.6,Africa/Porto-Novo,221108
Bakaga,Benin,BJ,9.3,2.6667,Africa/Porto-Novo,206667
Parakou,Benin,BJ,9.35,2.6167,Africa/Porto-Novo,206667
Kandi,Benin,BJ,11.1286,2.9369,Africa/Porto-Novo,179290
Aplahoué,Benin,BJ,6.9333,1.6833,Africa/Porto-Novo,170069
Kalalé,Benin,BJ,10.2953,3.3817,Africa/Porto-Novo,168882
Malanville,Benin,BJ,11.8667,3.3833,Africa/Porto-Novo,168641
Ouidah,Benin,BJ,6.3667,2.0833,Africa/Porto-Novo,162034
Kétou,Benin,BJ,7.3581,2.6075,Africa/Porto-Novo,156497
Bohicon,Benin,BJ,7.2,2.0667,Africa/Porto-Novo,149271
Djakotomé,Benin,BJ,6.9,1.7167,Africa/Porto-Novo,134704
Zagnanado,Benin,BJ,7.2667,2.35,Africa/Porto-Novo,132401
Bassila,Benin,BJ,9.0167,1.6667,Africa/Porto-Novo,130770
Avrankou,Benin,BJ,6.55,2.6667,Africa/Porto-Novo,128050
Allada,Benin,BJ,6.665,2.1522,Africa/Porto-Novo,127512
Missérété,Benin,BJ,6.5625,2.5853,Africa/Porto-Novo,127249
Glazoué,Benin,BJ,7.9736,2.24,Africa/Porto-Novo,124431
Pobé,Benin,BJ,6.9667,2.6833,Africa/Porto-Novo,123740
Djidja,Benin,BJ,7.3444,1.9333,Africa/Porto-Novo,123542
Lalo,Benin,BJ,6.9167,1.8833,Africa/Porto-Novo,119926
Gustavia,Saint Barthelemy,BL,17.8986,-62.8492,America/St_Barthelemy,9131
Hamilton,Bermuda,BM,32.295,-64.7831,Atlantic/Bermuda,854
Bandar Seri Begawan,Brunei,BN,4.9167,114.9167,Asia/Brunei,50000
Seria,Brunei,BN,4.6142,114.3303,Asia/Brunei,21082
Tutong,Brunei,BN,4.8067,114.6592,Asia/Brunei,9883
Kampong Tunah Jambu,Brunei,BN,4.9957,115.0019,Asia/Brunei,8809
Kuala Belait,Brunei,BN,4.5828,114.1918,Asia/Brunei,4259
Bangar,Brunei,BN,4.7086,115.0739,Asia/Brunei,626
Santa Cruz de la Sierra,Bolivia,BO,-17.7892,-63.1975,America/La_Paz,3151676
La Paz,Bolivia,BO,-16.4958,-68.1333,America/La_Paz,2063633
El Alto,Bolivia,BO,-16.5047,-68.1633,America/La_Paz,885035
Cochabamba,Bolivia,BO,-17.3935,-66.157,America/La_Paz,661484
Sucre,Bolivia,BO,-19.0475,-65.26,America/La_Paz,360544
Oruro,Bolivia,BO,-17.9592,-67.1095,America/La_Paz,351802
Oruro,Bolivia,BO,-17.9667,-67.1167,America/La_Paz,297497
Tarija,Bolivia,BO,-21.5339,-64.7342,America/La_Paz,268000
Warnes,Bolivia,BO,-17.5103,-63.1647,America/La_Paz,214216
Potosí,Bolivia,BO,-19.5892,-65.7533,America/La_Paz,189652
Sacaba,Bolivia,BO,-17.4042,-66.0408,America/La_Paz,172466
Quillacollo,Bolivia,BO,-17.3975,-66.2817,America/La_Paz,137182
Trinidad,Bolivia,BO,-14.8333,-64.9,America/La_Paz,130657
Montero,Bolivia,BO,-17.3425,-63.2553,America/La_Paz,126886
Yacuiba,Bolivia,BO,-22.0139,-63.6778,America/La_Paz,97296
Cobija,Bolivia,BO,-11.0183,-68.7537,America/La_Paz,78555
Riberalta,Bolivia,BO,-11.005,-66.0661,America/La_Paz,78100
Caranavi,Bolivia,BO,-15.8339,-67.5658,America/La_Paz,59676
Tiquipaya,Bolivia,BO,-17.3381,-66.2189,America/La_Paz,58223
Sipe Sipe,Bolivia,BO,-17.45,-66.3833,America/La_Paz,55908
Santiago del Torno,Bolivia,BO,-17.9947,-63.3842,America/La_Paz,55697
Vinto,Bolivia,BO,-17.3972,-66.3136,America/La_Paz,51968
Colcapirhua,Bolivia,BO,-17.3908,-66.2386,America/La_Paz,48631
Tupiza,Bolivia,BO,-21.4423,-65.719,America/La_Paz,43100
Villamontes,Bolivia,BO,-21.2647,-63.4586,America/La_Paz,39800
Kralendijk,"Bonaire, Sint Eustatius, and Saba",BQ,12.1508,-68.2767,America/Kralendijk,12531
Oranjestad,"Bonaire, Sint Eustatius, and Saba",BQ,17.4833,-62.9833,America/Kralendijk,1021
The Bottom,"Bonaire, Sint Eustatius, and Saba",BQ,17.6261,-63.2492,America/Kralendijk,495
São Paulo,Brazil,BR,-23.5504,-46.6339,America/Sao_Paulo,23086000
Rio de Janeiro,Brazil,BR,-22.9111,-43.2056,America/Sao_Paulo,12592000
Belo Horizonte,Brazil,BR,-19.9281,-43.9419,America/Sao_Paulo,5328000
Fortaleza,Brazil,BR,-3.7275,-38.5275,America/Fortaleza,4167996
Brasília,Brazil,BR,-15.7939,-47.8828,America/Sao_Paulo,2996899
Teresina,Brazil,BR,-5.0903,-42.8167,America/Fortaleza,2729527
Salvador,Brazil,BR,-12.9831,-38.4928,America/Bahia,2417678
Manaus,Brazil,BR,-3.1189,-60.0217,America/Manaus,2303732
Campinas,Brazil,BR,-22.9009,-47.0573,America/Sao_Paulo,2184952
Curitiba,Brazil,BR,-25.4297,-49.2719,America/Sao_Paulo,1773718
Recife,Brazil,BR,-8.0539,-34.8808,America/Recife,1488920
Goiânia,Brazil,BR,-16.6806,-49.2564,America/Sao_Paulo,1437366
Porto Alegre,Brazil,BR,-30.0328,-51.23,America/Sao_Paulo,1388794
Guarulhos,Brazil,BR,-23.4667,-46.5333,America/Sao_Paulo,1324781
Belém,Brazil,BR,-1.4558,-48.5039,America/Belem,1303403
São Luís,Brazil,BR,-2.53,-44.3028,America/Fortaleza,1037775
Campo Grande,Brazil,BR,-20.4686,-54.6222,America/Campo_Grande,962883
Maceió,Brazil,BR,-9.6658,-35.735,America/Maceio,957916
São Gonçalo,Brazil,BR,-22.8269,-43.0539,America/Sao_Paulo,896744
João Pessoa,Brazil,BR,-7.12,-34.88,America/Fortaleza,833932
São Bernardo do Campo,Brazil,BR,-23.6939,-46.565,America/Sao_Paulo,810729
Uberlândia,Brazil,BR,-18.9189,-48.2769,America/Sao_Paulo,761835
Natal,Brazil,BR,-5.795,-35.2089,America/Fortaleza,751300
Santo André,Brazil,BR,-23.6533,-46.528,America/Sao_Paulo,748919
São José dos Campos,Brazil,BR,-23.1789,-45.8869,America/Sao_Paulo,737310
Nassau,"Bahamas, The",BS,25.0781,-77.3386,America/Nassau,227940
Freeport City,"Bahamas, The",BS,26.52,-78.66,America/Nassau,45945
West End,"Bahamas, The",BS,26.6867,-78.975,America/Nassau,13577
Cooper’s Town,"Bahamas, The",BS,26.8686,-77.5081,America/Nassau,9948
Lucaya,"Bahamas, The",BS,26.5333,-78.6667,America/Nassau,0
Thimphu,Bhutan,BT,27.4714,89.6337,Asia/Thimphu,114551
Phuntsholing,Bhutan,BT,26.85,89.3833,Asia/Kolkata,27658
Geylegphug,Bhutan,BT,26.8706,90.4856,Asia/Thimphu,9858
Samdrup Jongkhar,Bhutan,BT,26.7978,91.5043,Asia/Thimphu,9325
Wangdue Phodrang,Bhutan,BT,27.4667,89.9,Asia/Thimphu,6714
Punakha,Bhutan,BT,27.6167,89.8667,Asia/Thimphu,6262
Jakar,Bhutan,BT,27.5592,90.7333,Asia/Thimphu,6243
Samtse,Bhutan,BT,26.8667,89.1,Asia/Thimphu,4981
Mongar,Bhutan,BT,27.275,91.24,Asia/Thimphu,3502
Trashigang,Bhutan,BT,27.3333,91.5528,Asia/Thimphu,3037
Trashi Yangtse,Bhutan,BT,27.5833,91.4667,Asia/Thimphu,2735
Trongsa,Bhutan,BT,27.5168,90.5,Asia/Thimphu,2695
Paro,Bhutan,BT,27.4333,89.4167,Asia/Thimphu,2362
Zhemgang,Bhutan,BT,27.2333,90.65,Asia/Thimphu,2332
Lhuentse,Bhutan,BT,27.65,91.15,Asia/Thimphu,1935
Daga,Bhutan,BT,27.1186,89.8667,Asia/Thimphu,1146
Gasa,Bhutan,BT,27.9038,89.7276,Asia/Thimphu,0
Haa,Bhutan,BT,27.3685,89.2918,Asia/Thimphu,0
Pemagatshel,Bhutan,BT,27.0333,91.45,Asia/Thimphu,0
Sarpang,Bhutan,BT,26.8639,90.2674,Asia/Thimphu,0
Tsimasham,Bhutan,BT,27.0989,89.536,Asia/Thimphu,0
Tsirang,Bhutan,BT,27.0219,90.1229,Asia/Thimphu,0
Gaborone,Botswana,BW,-24.6569,25.9086,Africa/Gaborone,235884
Francistown,Botswana,BW,-21.1736,27.5125,Africa/Gaborone,103417
Mogoditshane,Botswana,BW,-24.6333,25.8667,Africa/Gaborone,88098
Maun,Botswana,BW,-19.9833,23.4167,Africa/Gaborone,85293
Molepolole,Botswana,BW,-24.4066,25.4951,Africa/Gaborone,67598
Tlokweng,Botswana,BW,-24.6686,25.9711,Africa/Gaborone,55517
Selibe Phikwe,Botswana,BW,-21.9667,27.9167,Africa/Gaborone,49724
Kanye,Botswana,BW,-24.9833,25.35,Africa/Gaborone,48028
Serowe,Botswana,BW,-22.3833,26.7167,Africa/Gaborone,47447
Mochudi,Botswana,BW,-24.4167,26.15,Africa/Gaborone,44339
Mahalapye,Botswana,BW,-23.1041,26.8142,Africa/Gaborone,41316
Palapye,Botswana,BW,-22.55,27.1333,Africa/Gaborone,36211
Lobatse,Botswana,BW,-25.2167,25.6667,Africa/Gaborone,29700
Ramotswa,Botswana,BW,-24.8667,25.8167,Africa/Gaborone,27760
Ghanzi,Botswana,BW,-21.7,21.65,Africa/Gaborone,21420
Bobonong,Botswana,BW,-21.9655,28.4363,Africa/Gaborone,21216
Letlhakane,Botswana,BW,-21.425,25.5892,Africa/Gaborone,20841
Gabane,Botswana,BW,-24.6667,25.7822,Africa/Gaborone,20018
Mosopa,Botswana,BW,-24.7792,25.4183,Africa/Gaborone,19780
Thamaga,Botswana,BW,-24.7167,25.5333,Africa/Gaborone,19547
Jwaneng,Botswana,BW,-24.6017,24.7281,Africa/Gaborone,18784
Mmopone,Botswana,BW,-24.5669,25.8733,Africa/Gaborone,14655
Mmadinare,Botswana,BW,-21.8765,27.7518,Africa/Gaborone,13198
Kopong,Botswana,BW,-24.4686,25.8922,Africa/Gaborone,9320
Kasane,Botswana,BW,-17.7983,25.1536,Africa/Gaborone,9008
Minsk,Belarus,BY,53.9022,27.5618,Europe/Minsk,1995091
Homyel’,Belarus,BY,52.4417,30.9833,Europe/Minsk,499853
Hrodna,Belarus,BY,53.6667,23.8167,Europe/Minsk,364902
Vitsyebsk,Belarus,BY,55.1833,30.1667,Europe/Minsk,358927
Mahilyow,Belarus,BY,53.9089,30.343,Europe/Minsk,352891
Brest,Belarus,BY,52.0847,23.6569,Europe/Minsk,347138
Babruysk,Belarus,BY,53.15,29.2333,Europe/Minsk,204103
Baranavichy,Belarus,BY,53.1325,26.0178,Europe/Minsk,170039
Pinsk,Belarus,BY,52.1153,26.1031,Europe/Minsk,123283
Mazyr,Belarus,BY,52.05,29.2333,Europe/Minsk,104302
Lida,Belarus,BY,53.8956,25.2958,Europe/Minsk,102603
Orsha,Belarus,BY,54.5092,30.4258,Europe/Minsk,100422
Salihorsk,Belarus,BY,52.7842,27.5425,Europe/Minsk,96418
Navapolatsk,Belarus,BY,55.5333,28.6667,Europe/Minsk,94666
Maladzyechna,Belarus,BY,54.3136,26.8517,Europe/Minsk,87339
Polatsk,Belarus,BY,55.4833,28.8,Europe/Minsk,79105
Zhlobin,Belarus,BY,52.9,30.0333,Europe/Minsk,75732
Rechytsa,Belarus,BY,52.3724,30.388,Europe/Minsk,64508
Svyetlahorsk,Belarus,BY,52.6333,29.7333,Europe/Minsk,61280
Slutsk,Belarus,BY,53.0167,27.55,Europe/Minsk,58995
Kobryn,Belarus,BY,52.2125,24.3567,Europe/Minsk,52235
Slonim,Belarus,BY,53.0833,25.3167,Europe/Minsk,48001
Vawkavysk,Belarus,BY,53.1667,24.4667,Europe/Minsk,40541
Kalinkavichy,Belarus,BY,52.1333,29.3333,Europe/Minsk,36549
Smarhon,Belarus,BY,54.4836,26.4,Europe/Minsk,34564
Belize City,Belize,BZ,17.4986,-88.1886,America/Belize,63999
San Ignacio,Belize,BZ,17.1588,-89.0696,America/Belize,26151
Belmopan,Belize,BZ,17.25,-88.7675,America/Belize,20754
San Pedro,Belize,BZ,17.9214,-87.9611,America/Belize,15456
Orange Walk,Belize,BZ,18.075,-88.5583,America/Belize,13750
Dangriga,Belize,BZ,16.9663,-88.2242,America/Belize,9927
Corozal,Belize,BZ,18.4,-88.4,America/Belize,9815
Punta Gorda,Belize,BZ,16.1,-88.8,America/Belize,5406
Toronto,Canada,CA,43.7417,-79.3733,America/Toronto,5647656
Montréal,Canada,CA,45.5089,-73.5617,America/Toronto,3675219
Vancouver,Canada,CA,49.25,-123.1,America/Vancouver,2426160
Calgary,Canada,CA,51.05,-114.0667,America/Edmonton,1306784
Edmonton,Canada,CA,53.5344,-113.4903,America/Edmonton,1151635
Ottawa,Canada,CA,45.4247,-75.695,America/Toronto,1068821
Winnipeg,Canada,CA,49.8844,-97.1464,America/Winnipeg,758515
Quebec City,Canada,CA,46.8139,-71.2081,America/Toronto,733156
Hamilton,Canada,CA,43.2567,-79.8692,America/Toronto,729560
Mississauga,Canada,CA,43.6,-79.65,America/Toronto,717961
Brampton,Canada,CA,43.6833,-79.7667,America/Toronto,656480
Surrey,Canada,CA,49.19,-122.8489,America/Vancouver,568322
Kitchener,Canada,CA,43.4186,-80.4728,America/Toronto,522888
Halifax,Canada,CA,44.6475,-63.5906,America/Halifax,439819
Laval,Canada,CA,45.5833,-73.75,America/Toronto,438366
London,Canada,CA,42.9836,-81.2497,America/Toronto,423369
Victoria,Canada,CA,48.4283,-123.3647,America/Vancouver,363222
Markham,Canada,CA,43.8767,-79.2633,America/Toronto,338503
Oshawa,Canada,CA,43.9,-78.85,America/Toronto,335949
Vaughan,Canada,CA,43.8333,-79.5,America/Toronto,323103
Windsor,Canada,CA,42.2833,-83.0,America/Toronto,306519
Gatineau,Canada,CA,45.4833,-75.65,America/Toronto,291041
Saskatoon,Canada,CA,52.1333,-106.6833,America/Regina,266141
Longueuil,Canada,CA,45.5333,-73.5167,America/Toronto,254483
Burnaby,Canada,CA,49.2667,-122.9667,America/Vancouver,249125
Kinshasa,Congo (Kinshasa),CD,-4.3233,15.3081,Africa/Kinshasa,17071000
Mbuji-Mayi,Congo (Kinshasa),CD,-6.1209,23.5967,Africa/Lubumbashi,2892000
Kananga,Congo (Kinshasa),CD,-5.8961,22.4167,Africa/Lubumbashi,1971704
Lubumbashi,Congo (Kinshasa),CD,-11.6642,27.4828,Africa/Lubumbashi,1786397
Kisangani,Congo (Kinshasa),CD,0.5153,25.1911,Africa/Lubumbashi,1366000
Bukavu,Congo (Kinshasa),CD,-2.4908,28.8428,Africa/Lubumbashi,1133000
Tshikapa,Congo (Kinshasa),CD,-6.4167,20.8,Africa/Lubumbashi,1006387
Goma,Congo (Kinshasa),CD,-1.6794,29.2336,Africa/Lubumbashi,781875
Uvira,Congo (Kinshasa),CD,-3.3953,29.1378,Africa/Lubumbashi,726000
Likasi,Congo (Kinshasa),CD,-10.9833,26.7333,Africa/Lubumbashi,495000
Bunia,Congo (Kinshasa),CD,1.5667,30.25,Africa/Lubumbashi,486000
Kolwezi,Congo (Kinshasa),CD,-10.7167,25.4667,Africa/Lubumbashi,480000
Mbandaka,Congo (Kinshasa),CD,0.0486,18.2603,Africa/Kinshasa,470307
Matadi,Congo (Kinshasa),CD,-5.8167,13.4833,Africa/Kinshasa,448000
Kikwit,Congo (Kinshasa),CD,-5.0333,18.8167,Africa/Kinshasa,397737
Kisenzi,Congo (Kinshasa),CD,-4.413,15.3464,Africa/Kinshasa,386151
Beni,Congo (Kinshasa),CD,0.4911,29.4731,Africa/Lubumbashi,232000
Butembo,Congo (Kinshasa),CD,0.1251,29.299,Africa/Lubumbashi,217625
Gbadolite,Congo (Kinshasa),CD,4.275,21.0,Africa/Kinshasa,198839
Mwene-Ditu,Congo (Kinshasa),CD,-7.0,23.45,Africa/Lubumbashi,195622
Isiro,Congo (Kinshasa),CD,2.7833,27.6167,Africa/Lubumbashi,182900
Kindu,Congo (Kinshasa),CD,-2.95,25.9167,Africa/Lubumbashi,172321
Boma,Congo (Kinshasa),CD,-5.85,13.05,Africa/Kinshasa,162521
Kamina,Congo (Kinshasa),CD,-8.7351,24.998,Africa/Lubumbashi,156761
Aketi,Congo (Kinshasa),CD,2.74,23.78,Africa/Lubumbashi,150000
Bangui,Central African Republic,CF,4.3732,18.5628,Africa/Bangui,889231
Bimbo,Central African Republic,CF,4.3313,18.5163,Africa/Bangui,124176
Berbérati,Central African Republic,CF,4.2667,15.7833,Africa/Bangui,76918
Carnot,Central African Republic,CF,4.9333,15.8667,Africa/Bangui,45421
Bambari,Central African Republic,CF,5.7667,20.6833,Africa/Bangui,41356
Bouar,Central African Republic,CF,5.95,15.6,Africa/Bangui,40353
Bossangoa,Central African Republic,CF,6.4833,17.45,Africa/Bangui,37780
Bria,Central African Republic,CF,6.5369,21.9919,Africa/Bangui,35204
Bangassou,Central African Republic,CF,4.737,22.819,Africa/Bangui,31453
Nola,Central African Republic,CF,3.5249,16.0458,Africa/Bangui,29181
Kaga Bandoro,Central African Republic,CF,7.0006,19.1808,Africa/Bangui,24661
Sibut,Central African Republic,CF,5.7378,19.0867,Africa/Bangui,22419
Mbaïki,Central African Republic,CF,3.8833,18.0,Africa/Bangui,22166
Bozoum,Central African Republic,CF,6.3172,16.3783,Africa/Bangui,20665
Bakouma,Central African Republic,CF,5.5267,22.5856,Africa/Bangui,17599
Paoua,Central African Republic,CF,7.25,16.4333,Africa/Bangui,17370
Bobangui,Central African Republic,CF,4.05,18.1167,Africa/Bangui,16486
Batangafo,Central African Republic,CF,7.3,18.3,Africa/Bangui,16420
Kabo,Central African Republic,CF,7.6994,18.6292,Africa/Bangui,16279
Bocaranga,Central African Republic,CF,6.9843,15.6408,Africa/Bangui,15744
Ippy,Central African Republic,CF,6.2628,21.1981,Africa/Bangui,15196
Alindao,Central African Republic,CF,5.0333,21.2167,Africa/Bangui,14401
Rafaï,Central African Republic,CF,4.9731,23.9319,Africa/Bangui,14000
Yaloké,Central African Republic,CF,5.3167,17.0833,Africa/Bangui,13608
Baoro,Central African Republic,CF,5.6946,15.9533,Africa/Bangui,13065
Brazzaville,Congo (Brazzaville),CG,-4.2694,15.2711,Africa/Brazzaville,2813480
Pointe-Noire,Congo (Brazzaville),CG,-4.7975,11.8503,Africa/Brazzaville,1420612
Tchibota,Congo (Brazzaville),CG,-4.1794,11.3731,Africa/Brazzaville,262931
Dolisie,Congo (Brazzaville),CG,-4.2006,12.6792,Africa/Brazzaville,117920
Oyo,Congo (Brazzaville),CG,-1.1603,15.9736,Africa/Brazzaville,63598
Bétou,Congo (Brazzaville),CG,3.0594,18.5142,Africa/Brazzaville,59563
Impfondo,Congo (Brazzaville),CG,1.6186,18.0622,Africa/Brazzaville,39653
Ouésso,Congo (Brazzaville),CG,1.6106,16.0514,Africa/Brazzaville,39653
Madingou,Congo (Brazzaville),CG,-4.1642,13.5517,Africa/Brazzaville,36183
Owando,Congo (Brazzaville),CG,-0.4833,15.8975,Africa/Brazzaville,34808
Hinda,Congo (Brazzaville),CG,-4.6167,12.0406,Africa/Brazzaville,32995
Sibiti,Congo (Brazzaville),CG,-3.685,13.3511,Africa/Brazzaville,32296
Mossaka,Congo (Brazzaville),CG,-1.2258,16.7947,Africa/Brazzaville,31347
Bouansa,Congo (Brazzaville),CG,-4.2186,13.7617,Africa/Brazzaville,26265
Loutété,Congo (Brazzaville),CG,-4.2972,13.8556,Africa/Brazzaville,26176
Gamboma,Congo (Brazzaville),CG,-1.8711,15.8781,Africa/Brazzaville,26053
Djambala,Congo (Brazzaville),CG,-2.54,14.7519,Africa/Brazzaville,24734
Mouyondzi,Congo (Brazzaville),CG,-3.9956,13.9219,Africa/Brazzaville,21215
Mindouli,Congo (Brazzaville),CG,-4.2747,14.3575,Africa/Brazzaville,20462
Makoua,Congo (Brazzaville),CG,-0.0067,15.6181,Africa/Brazzaville,20038
Loudima Poste,Congo (Brazzaville),CG,-4.1122,13.06,Africa/Brazzaville,19884
Mossendjo,Congo (Brazzaville),CG,-2.9453,12.7156,Africa/Brazzaville,15003
Boloso,Congo (Brazzaville),CG,2.0333,15.2,Africa/Brazzaville,12244
Kinkala,Congo (Brazzaville),CG,-4.3567,14.7589,Africa/Brazzaville,12102
Ewo,Congo (Brazzaville),CG,-0.8742,14.8167,Africa/Brazzaville,11457
Zürich,Switzerland,CH,47.3744,8.5411,Europe/Zurich,452421
Geneva,Switzerland,CH,46.2,6.15,Europe/Zurich,209061
Basel,Switzerland,CH,47.5606,7.5906,Europe/Zurich,176329
Lausanne,Switzerland,CH,46.5333,6.6333,Europe/Zurich,144873
Bern,Switzerland,CH,46.948,7.4474,Europe/Zurich,136988
Winterthur,Switzerland,CH,47.4992,8.7267,Europe/Zurich,120376
Lucerne,Switzerland,CH,47.0523,8.3059,Europe/Zurich,86234
Sankt Gallen,Switzerland,CH,47.4233,9.3772,Europe/Zurich,78863
Lugano,Switzerland,CH,46.0103,8.9625,Europe/Zurich,63495
Biel/Bienne,Switzerland,CH,47.1372,7.2472,Europe/Zurich,55932
Neuchâtel,Switzerland,CH,46.9903,6.9306,Europe/Zurich,45309
Bellinzona,Switzerland,CH,46.1956,9.0238,Europe/Zurich,45305
Thun,Switzerland,CH,46.759,7.63,Europe/Zurich,43905
Köniz,Switzerland,CH,46.925,7.4153,Europe/Zurich,42958
Chur,Switzerland,CH,46.8521,9.5297,Europe/Zurich,39177
Fribourg,Switzerland,CH,46.8,7.15,Europe/Zurich,39151
La Chaux-de-Fonds,Switzerland,CH,47.0996,6.8296,Europe/Zurich,38965
Schaffhausen,Switzerland,CH,47.6965,8.6339,Europe/Zurich,38964
Sion,Switzerland,CH,46.2304,7.3661,Europe/Zurich,37154
Uster,Switzerland,CH,47.3492,8.7192,Europe/Zurich,36791
Vernier,Switzerland,CH,46.2,6.1,Europe/Zurich,34774
Zug,Switzerland,CH,47.1681,8.5169,Europe/Zurich,32122
Landecy,Switzerland,CH,46.1446,6.1294,Europe/Zurich,31942
Yverdon-les-Bains,Switzerland,CH,46.7785,6.6408,Europe/Zurich,30292
Emmen,Switzerland,CH,47.0772,8.3,Europe/Zurich,29292
Abidjan,Côte d’Ivoire,CI,5.3364,-4.0267,Africa/Abidjan,5616633
Yopougon,Côte d’Ivoire,CI,5.3347,-4.07,Africa/Abidjan,1571065
Abobo,Côte d’Ivoire,CI,5.4189,-4.0206,Africa/Abidjan,1340083
Bouaké,Côte d’Ivoire,CI,7.6833,-5.0331,Africa/Abidjan,740000
Cocody,Côte d’Ivoire,CI,5.35,-3.9667,Africa/Abidjan,692583
Port-Bouët,Côte d’Ivoire,CI,5.2667,-3.9,Africa/Abidjan,618795
Korhogo,Côte d’Ivoire,CI,9.4578,-5.6294,Africa/Abidjan,440926
Daloa,Côte d’Ivoire,CI,6.8667,-6.45,Africa/Abidjan,421879
Koumassi,Côte d’Ivoire,CI,5.3,-3.95,Africa/Abidjan,412282
San-Pédro,Côte d’Ivoire,CI,4.7333,-6.6333,Africa/Abidjan,390654
Adjamé,Côte d’Ivoire,CI,5.3648,-4.0237,Africa/Abidjan,340892
Yamoussoukro,Côte d’Ivoire,CI,6.8161,-5.2742,Africa/Abidjan,340234
Attiecoubé,Côte d’Ivoire,CI,5.3453,-4.035,Africa/Abidjan,313135
Divo,Côte d’Ivoire,CI,5.8372,-5.3572,Africa/Abidjan,294559
Gagnoa,Côte d’Ivoire,CI,6.1333,-5.9333,Africa/Abidjan,277044
Soubré,Côte d’Ivoire,CI,5.7836,-6.5939,Africa/Abidjan,272773
Man,Côte d’Ivoire,CI,7.4125,-7.5536,Africa/Abidjan,241969
Duekoué,Côte d’Ivoire,CI,6.7348,-7.3375,Africa/Abidjan,220953
Marcory,Côte d’Ivoire,CI,5.3,-3.9833,Africa/Abidjan,214061
Bouaflé,Côte d’Ivoire,CI,6.9903,-5.7442,Africa/Abidjan,213967
Bingerville,Côte d’Ivoire,CI,5.35,-3.9,Africa/Abidjan,204656
Guiglo,Côte d’Ivoire,CI,6.5436,-7.4933,Africa/Abidjan,171454
Abengourou,Côte d’Ivoire,CI,6.7297,-3.4964,Africa/Abidjan,164424
Ferkessédougou,Côte d’Ivoire,CI,9.5928,-5.1944,Africa/Abidjan,160267
Adzopé,Côte d’Ivoire,CI,6.1035,-3.8648,Africa/Abidjan,156488
Avarua,Cook Islands,CK,-21.207,-159.771,Pacific/Rarotonga,4798
Santiago,Chile,CL,-33.4375,-70.65,America/Santiago,7171000
Valparaíso,Chile,CL,-33.0461,-71.6197,America/Santiago,952000
Concepción,Chile,CL,-36.82,-73.0445,America/Santiago,719944
Puente Alto,Chile,CL,-33.6167,-70.5833,America/Santiago,573935
Maipú,Chile,CL,-33.5167,-70.7667,America/Santiago,521627
La Serena,Chile,CL,-29.9027,-71.252,America/Santiago,401938
La Florida,Chile,CL,-33.55,-70.5667,America/Santiago,366916
Antofagasta,Chile,CL,-23.6464,-70.3981,America/Santiago,348517
Viña del Mar,Chile,CL,-33.0245,-71.5518,America/Santiago,332875
San Bernardo,Chile,CL,-33.6,-70.7167,America/Santiago,301313
Las Condes,Chile,CL,-33.4167,-70.5833,America/Santiago,294838
Temuco,Chile,CL,-38.7399,-72.5901,America/Santiago,282415
Talcahuano,Chile,CL,-36.7145,-73.1141,America/Santiago,270000
Osorno,Chile,CL,-40.5739,-73.1336,America/Santiago,249728
Talca,Chile,CL,-35.4269,-71.6656,America/Santiago,232131
Rancagua,Chile,CL,-34.1654,-70.7398,America/Santiago,231370
Peñalolén,Chile,CL,-33.4833,-70.5333,America/Santiago,216060
Quilicura,Chile,CL,-33.3667,-70.75,America/Santiago,210410
Coquimbo,Chile,CL,-29.9532,-71.338,America/Santiago,204068
Arica,Chile,CL,-18.4784,-70.3212,America/Santiago,202131
Iquique,Chile,CL,-20.2141,-70.1524,America/Santiago,188003
La Pintana,Chile,CL,-33.5833,-70.6167,America/Santiago,177335
El Bosque,Chile,CL,-33.5667,-70.6667,America/Santiago,175594
Puerto Montt,Chile,CL,-41.4718,-72.9396,America/Santiago,169736
Chillán,Chile,CL,-36.6067,-72.1033,America/Santiago,164270
Douala,Cameroon,CM,4.05,9.7,Africa/Douala,5768400
Yaoundé,Cameroon,CM,3.8578,11.5181,Africa/Douala,2440462
Bamenda,Cameroon,CM,5.9614,10.1517,Africa/Douala,636000
Bafoussam,Cameroon,CM,5.4667,10.4167,Africa/Douala,600000
Garoua,Cameroon,CM,9.3,13.4,Africa/Douala,600000
Guider,Cameroon,CM,9.9342,13.9486,Africa/Douala,400000
Maroua,Cameroon,CM,10.5909,14.3159,Africa/Douala,201371
Ngaoundéré,Cameroon,CM,7.3214,13.5839,Africa/Douala,189800
Bertoua,Cameroon,CM,4.5833,13.6833,Africa/Douala,173000
Kumba,Cameroon,CM,4.6333,9.45,Africa/Douala,144268
Nkongsamba,Cameroon,CM,4.95,9.9167,Africa/Douala,135405
Bibémi,Cameroon,CM,9.3167,13.8833,Africa/Douala,133191
Buea,Cameroon,CM,4.1667,9.2333,Africa/Douala,131325
Kousséri,Cameroon,CM,12.0833,15.0333,Africa/Douala,101246
Bogo,Cameroon,CM,10.7361,14.6108,Africa/Douala,95230
Widekum,Cameroon,CM,5.8717,9.7706,Africa/Douala,86822
Maga,Cameroon,CM,10.8434,14.9396,Africa/Douala,85100
Limbe,Cameroon,CM,4.0167,9.2167,Africa/Douala,84223
Foumban,Cameroon,CM,5.7167,10.9167,Africa/Douala,83522
Kumbo,Cameroon,CM,6.2,10.66,Africa/Douala,80212
Eséka,Cameroon,CM,3.65,10.7667,Africa/Douala,79500
Tiko,Cameroon,CM,4.0786,9.3681,Africa/Douala,78885
Ébolowa,Cameroon,CM,2.9167,11.15,Africa/Douala,76885
Pitoa,Cameroon,CM,9.3833,13.5333,Africa/Douala,76715
Dschang,Cameroon,CM,5.45,10.05,Africa/Douala,76524
Chongqing,China,CN,29.55,106.5069,Asia/Shanghai,32054159
Guangzhou,China,CN,23.13,113.26,Asia/Shanghai,26940000
Shanghai,China,CN,31.2325,121.4692,Asia/Shanghai,24870895
Beijing,China,CN,39.904,116.4075,Asia/Shanghai,21893095
Chengdu,China,CN,30.66,104.0633,Asia/Shanghai,20937757
Shenzhen,China,CN,22.5467,114.0544,Asia/Shanghai,17619000
Tianjin,China,CN,39.1467,117.2056,Asia/Shanghai,13866009
Suzhou,China,CN,31.3,120.6194,Asia/Shanghai,12748262
Wuhan,China,CN,30.595,114.2975,Asia/Shanghai,12447718
Xi’an,China,CN,34.2611,108.9422,Asia/Shanghai,12328000
Hangzhou,China,CN,30.25,120.1675,Asia/Shanghai,11936010
Baoding,China,CN,38.8671,115.4845,Asia/Shanghai,11544036
Linyi,China,CN,35.1041,118.3502,Asia/Shanghai,11018365
Dongguan,China,CN,23.0475,113.7493,Asia/Shanghai,10646000
Harbin,China,CN,45.75,126.6333,Asia/Shanghai,10635971
Qingdao,China,CN,36.1167,120.4,Asia/Shanghai,10071722
Nanyang,China,CN,32.9987,112.5292,Asia/Shanghai,9713112
Foshan,China,CN,23.0292,113.1056,Asia/Shanghai,9498863
Nanjing,China,CN,32.0608,118.7789,Asia/Shanghai,9314685
Jinan,China,CN,36.6667,116.9833,Asia/Shanghai,9202432
Tongshan,China,CN,34.261,117.1859,Asia/Shanghai,9083790
Zhoukou,China,CN,33.625,114.6418,Asia/Shanghai,9026015
Ganzhou,China,CN,25.8292,114.9336,Asia/Shanghai,8970014
Heze,China,CN,35.2333,115.4333,Asia/Shanghai,8795939
Quanzhou,China,CN,24.9139,118.5858,Asia/Shanghai,8782285
Bogotá,Colombia,CO,4.6097,-74.0817,America/Bogota,10085000
Cali,Colombia,CO,3.44,-76.5197,America/Bogota,2916790
Medellín,Colombia,CO,6.2502,-75.5676,America/Bogota,2529403
Barranquilla,Colombia,CO,10.9833,-74.8019,America/Bogota,1326588
Cartagena,Colombia,CO,10.3997,-75.5144,America/Bogota,914552
Bucaramanga,Colombia,CO,7.1186,-73.1161,America/Bogota,893040
Cúcuta,Colombia,CO,7.9075,-72.5047,America/Bogota,806378
Villavicencio,Colombia,CO,4.1425,-73.6294,America/Bogota,664148
Pereira,Colombia,CO,4.8143,-75.6946,America/Bogota,590554
Bello,Colombia,CO,6.3319,-75.5581,America/Bogota,561955
Ibagué,Colombia,CO,4.4378,-75.2006,America/Bogota,546003
Valledupar,Colombia,CO,10.4603,-73.2597,America/Bogota,544134
Soacha,Colombia,CO,4.5781,-74.2144,America/Bogota,522442
Santa Marta,Colombia,CO,11.2361,-74.2017,America/Bogota,505915
Manizales,Colombia,CO,5.0675,-75.51,America/Bogota,454494
Buenaventura,Colombia,CO,3.8772,-77.0267,America/Bogota,423927
Pasto,Colombia,CO,1.21,-77.2747,America/Bogota,410835
Montería,Colombia,CO,8.76,-75.8856,America/Bogota,400000
Neiva,Colombia,CO,2.9275,-75.2875,America/Bogota,380019
Palmira,Colombia,CO,3.5347,-76.2956,America/Bogota,358895
Fontibón,Colombia,CO,4.6734,-74.1448,America/Bogota,317179
Usme,Colombia,CO,4.471,-74.1253,America/Bogota,314431
Armenia,Colombia,CO,4.5389,-75.6725,America/Bogota,301226
Popayán,Colombia,CO,2.4542,-76.6092,America/Bogota,300837
Barrancabermeja,Colombia,CO,7.0675,-73.8472,America/Bogota,300000
San José,Costa Rica,CR,9.9327,-84.0796,America/Costa_Rica,335007
San Marcos,Costa Rica,CR,10.6172,-84.5147,America/Costa_Rica,198742
San Ramón,Costa Rica,CR,10.2203,-84.5889,America/Costa_Rica,93264
Puntarenas,Costa Rica,CR,9.9773,-84.8346,America/Costa_Rica,87500
Santa Cruz,Costa Rica,CR,10.2667,-85.65,America/Costa_Rica,72366
Puerto Limón,Costa Rica,CR,10.0022,-83.084,America/Costa_Rica,71514
Nicoya,Costa Rica,CR,10.2,-85.4325,America/Costa_Rica,66268
Liberia,Costa Rica,CR,10.6296,-85.4383,America/Costa_Rica,65922
Mora,Costa Rica,CR,10.0128,-84.0222,America/Costa_Rica,59546
Guácimo,Costa Rica,CR,10.2124,-83.6865,America/Costa_Rica,49606
San Rafael,Costa Rica,CR,10.0689,-84.4258,America/Costa_Rica,48848
Naranjo,Costa Rica,CR,10.1,-84.3833,America/Costa_Rica,46647
Coto Brus,Costa Rica,CR,8.8947,-82.9161,America/Costa_Rica,46351
Santo Domingo,Costa Rica,CR,9.9833,-84.0833,America/Costa_Rica,45932
Matina,Costa Rica,CR,10.0855,-83.2834,America/Costa_Rica,45329
San Isidro,Costa Rica,CR,9.3403,-83.7338,America/Costa_Rica,45324
Alajuela,Costa Rica,CR,10.0165,-84.2139,America/Costa_Rica,44374
Quesada,Costa Rica,CR,10.3236,-84.4269,America/Costa_Rica,42060
Palmares,Costa Rica,CR,10.0483,-84.4411,America/Costa_Rica,39148
Santa Bárbaraa,Costa Rica,CR,10.0358,-84.1611,America/Costa_Rica,39133
Guápiles,Costa Rica,CR,10.2141,-83.7918,America/Costa_Rica,36469
Poás,Costa Rica,CR,10.0833,-84.25,America/Costa_Rica,36207
Esparza,Costa Rica,CR,9.9908,-84.6672,America/Costa_Rica,34808
Paraíso,Costa Rica,CR,9.8432,-83.8463,America/Costa_Rica,33398
Turrialba,Costa Rica,CR,9.8897,-83.6807,America/Costa_Rica,32004
Havana,Cuba,CU,23.1367,-82.3589,America/Havana,2492618
Santiago de Cuba,Cuba,CU,20.0217,-75.8294,America/Havana,506037
Holguín,Cuba,CU,20.8872,-76.2631,America/Havana,350191
Camagüey,Cuba,CU,21.3786,-77.9186,America/Havana,321992
Santa Clara,Cuba,CU,22.4067,-79.9531,America/Havana,247436
Bayamo,Cuba,CU,20.3817,-76.6428,America/Havana,235107
Guantánamo,Cuba,CU,20.1383,-75.2061,America/Havana,228436
Carlos Manuel de Céspedes,Cuba,CU,21.5767,-78.2775,America/Havana,224488
Arroyo Naranjo,Cuba,CU,23.0436,-82.3328,America/Havana,206918
Las Tunas,Cuba,CU,20.9667,-76.95,America/Havana,202105
Pinar del Río,Cuba,CU,22.4122,-83.6719,America/Havana,188614
Cienfuegos,Cuba,CU,22.1456,-80.4364,America/Havana,164924
San Miguel del Padrón,Cuba,CU,23.0964,-82.3267,America/Havana,161072
Matanzas,Cuba,CU,23.0494,-81.5736,America/Havana,151624
Manzanillo,Cuba,CU,20.3397,-77.1086,America/Havana,150999
La Lisa,Cuba,CU,23.0247,-82.4631,America/Havana,147415
Ciego de Ávila,Cuba,CU,21.8481,-78.7631,America/Havana,143449
Sancti Spíritus,Cuba,CU,21.9339,-79.4439,America/Havana,138504
Marianao,Cuba,CU,23.0833,-82.4333,America/Havana,134057
Centro Habana,Cuba,CU,23.1348,-82.3701,America/Havana,132451
Guanabacoa,Cuba,CU,23.1252,-82.3007,America/Havana,128666
Cerro,Cuba,CU,23.0881,-82.395,America/Havana,124994
Palma Soriano,Cuba,CU,20.2139,-75.9919,America/Havana,119740
Contramaestre,Cuba,CU,20.3,-76.2506,America/Havana,106002
Mayarí,Cuba,CU,20.6552,-75.6764,America/Havana,102354
Praia,Cabo Verde,CV,14.9177,-23.5092,Atlantic/Cape_Verde,159050
Lazareto,Cabo Verde,CV,16.8667,-25.0333,Atlantic/Cape_Verde,70468
Mindelo,Cabo Verde,CV,16.8914,-24.988,Atlantic/Cape_Verde,70468
Tarrafal,Cabo Verde,CV,15.2787,-23.7516,Atlantic/Cape_Verde,30000
Santa Maria,Cabo Verde,CV,16.6,-22.9042,Atlantic/Cape_Verde,25779
São Filipe,Cabo Verde,CV,14.8951,-24.5004,Atlantic/Cape_Verde,22227
Porto Novo,Cabo Verde,CV,17.0208,-25.0667,Atlantic/Cape_Verde,18028
Assomada,Cabo Verde,CV,15.0949,-23.6654,Atlantic/Cape_Verde,12026
Pedra Badejo,Cabo Verde,CV,15.1375,-23.5333,Atlantic/Cape_Verde,9530
Sal Rei,Cabo Verde,CV,16.176,-22.9171,Atlantic/Cape_Verde,6357
Espargos,Cabo Verde,CV,16.7546,-22.9453,Atlantic/Cape_Verde,6173
Tarrafal,Cabo Verde,CV,16.5667,-24.3556,Atlantic/Cape_Verde,5237
Ponta do Sol,Cabo Verde,CV,17.2018,-25.0915,Atlantic/Cape_Verde,4738
Calheta de São Miguel,Cabo Verde,CV,15.1875,-23.5917,Atlantic/Cape_Verde,4123
Porto Inglês,Cabo Verde,CV,15.1375,-23.2083,Atlantic/Cape_Verde,3056
Ribeira Grande,Cabo Verde,CV,17.1827,-25.0655,Atlantic/Cape_Verde,2950
São Domingos,Cabo Verde,CV,15.025,-23.5625,Atlantic/Cape_Verde,2818
Cidade Velha,Cabo Verde,CV,14.9167,-23.6042,Atlantic/Cape_Verde,2148
João Teves,Cabo Verde,CV,15.0667,-23.5917,Atlantic/Cape_Verde,1699
Cova Figueira,Cabo Verde,CV,14.8899,-24.294,Atlantic/Cape_Verde,1370
Pombas,Cabo Verde,CV,17.1458,-25.0125,Atlantic/Cape_Verde,1184
Picos,Cabo Verde,CV,15.0833,-23.6333,Atlantic/Cape_Verde,1143
Nova Sintra,Cabo Verde,CV,14.8708,-24.6958,Atlantic/Cape_Verde,1049
Igreja,Cabo Verde,CV,15.0339,-24.325,Atlantic/Cape_Verde,0
Ribeira Brava,Cabo Verde,CV,16.616,-24.2983,Atlantic/Cape_Verde,0
Willemstad,Curaçao,CW,12.108,-68.935,America/Curacao,150000
Flying Fish Cove,Christmas Island,CX,-10.4217,105.6781,Indian/Christmas,1599
Nicosia,Cyprus,CY,35.1725,33.365,Asia/Nicosia,256119
Limassol,Cyprus,CY,34.675,33.0443,Asia/Nicosia,198558
Paphos,Cyprus,CY,34.7761,32.4265,Asia/Nicosia,55000
Larnaca,Cyprus,CY,34.9296,33.6295,Asia/Nicosia,52038
Famagusta,Cyprus,CY,35.1167,33.95,Asia/Famagusta,40920
Kyrenia,Cyprus,CY,35.3403,33.3192,Asia/Famagusta,33207
Mórfou,Cyprus,CY,35.1987,32.9934,Asia/Famagusta,24070
Káto Polemídia,Cyprus,CY,34.6931,32.9992,Asia/Nicosia,23174
Aradíppou,Cyprus,CY,34.9478,33.5881,Asia/Nicosia,19199
Latsia,Cyprus,CY,35.0968,33.3773,Asia/Nicosia,16774
Paralímni,Cyprus,CY,35.0387,33.9862,Asia/Nicosia,14963
Ágios Athanásios,Cyprus,CY,34.7087,33.0504,Asia/Nicosia,14578
Mésa Geitoniá,Cyprus,CY,34.7024,33.0453,Asia/Nicosia,14477
Germasógeia,Cyprus,CY,34.7181,33.0856,Asia/Nicosia,13421
Ýpsonas,Cyprus,CY,34.6911,32.9551,Asia/Nicosia,11117
Dáli,Cyprus,CY,35.024,33.4226,Asia/Nicosia,10466
Prague,Czechia,CZ,50.0875,14.4214,Europe/Prague,1397880
Brno,Czechia,CZ,49.1953,16.6083,Europe/Prague,402739
Ostrava,Czechia,CZ,49.8356,18.2925,Europe/Prague,283187
Plzeň,Czechia,CZ,49.7414,13.3825,Europe/Prague,187928
Liberec,Czechia,CZ,50.7667,15.05,Europe/Prague,108090
Olomouc,Czechia,CZ,49.5939,17.2508,Europe/Prague,103063
České Budějovice,Czechia,CZ,48.9747,14.4747,Europe/Prague,97231
Hradec Králové,Czechia,CZ,50.2092,15.8319,Europe/Prague,94311
Pardubice,Czechia,CZ,50.0386,15.7792,Europe/Prague,92319
Ústí nad Labem,Czechia,CZ,50.6592,14.0417,Europe/Prague,90866
Zlín,Czechia,CZ,49.2331,17.6669,Europe/Prague,74684
Kladno,Czechia,CZ,50.1431,14.1053,Europe/Prague,69664
Havířov,Czechia,CZ,49.7778,18.4228,Europe/Prague,68674
Poruba,Czechia,CZ,49.825,18.1711,Europe/Prague,66603
Most,Czechia,CZ,50.5031,13.6367,Europe/Prague,63474
Opava,Czechia,CZ,49.9381,17.9044,Europe/Prague,55109
Jihlava,Czechia,CZ,49.4003,15.5906,Europe/Prague,54624
Frýdek-Místek,Czechia,CZ,49.6881,18.3536,Europe/Prague,53590
Teplice,Czechia,CZ,50.6333,13.8167,Europe/Prague,50912
Karlovy Vary,Czechia,CZ,50.2306,12.8725,Europe/Prague,49073
Karviná,Czechia,CZ,49.8542,18.5428,Europe/Prague,48937
Mladá Boleslav,Czechia,CZ,50.4125,14.9064,Europe/Prague,47346
Chomutov,Czechia,CZ,50.4628,13.4111,Europe/Prague,46771
Děčín,Czechia,CZ,50.7736,14.1961,Europe/Prague,46376
Jablonec nad Nisou,Czechia,CZ,50.7278,15.17,Europe/Prague,46209
Dortmund,Germany,DE,51.5139,7.4653,Europe/Berlin,5302179
Berlin,Germany,DE,52.5167,13.3833,Europe/Berlin,4679500
Cologne,Germany,DE,50.9422,6.9578,Europe/Berlin,3500000
Stuttgart,Germany,DE,48.7775,9.18,Europe/Berlin,2787727
Munich,Germany,DE,48.1375,11.575,Europe/Berlin,2606021
Hamburg,Germany,DE,53.55,10.0,Europe/Berlin,2496600
Frankfurt,Germany,DE,50.1106,8.6822,Europe/Berlin,2319029
Nuremberg,Germany,DE,49.4539,11.0775,Europe/Berlin,1374524
Dresden,Germany,DE,51.0493,13.7381,Europe/Berlin,790400
Düsseldorf,Germany,DE,51.2256,6.7767,Europe/Berlin,631217
Leipzig,Germany,DE,51.3394,12.3711,Europe/Berlin,619879
Wuppertal,Germany,DE,51.2667,7.1833,Europe/Berlin,608000
Bielefeld,Germany,DE,52.0167,8.5333,Europe/Berlin,591862
Essen,Germany,DE,51.4508,7.0131,Europe/Berlin,586608
Bremen,Germany,DE,53.0758,8.8072,Europe/Berlin,577026
Braunschweig,Germany,DE,52.2692,10.5211,Europe/Berlin,551000
Hannover,Germany,DE,52.3744,9.7386,Europe/Berlin,548186
Duisburg,Germany,DE,51.4322,6.7611,Europe/Berlin,503707
Bochum,Germany,DE,51.4833,7.2167,Europe/Berlin,366385
Freiburg im Breisgau,Germany,DE,47.995,7.85,Europe/Berlin,354500
Bonn,Germany,DE,50.7353,7.1022,Europe/Berlin,335789
Münster,Germany,DE,51.9625,7.6256,Europe/Berlin,322904
Mannheim,Germany,DE,49.4878,8.4661,Europe/Berlin,316877
Karlsruhe,Germany,DE,49.0167,8.4,Europe/Berlin,309964
Augsburg,Germany,DE,48.3689,10.8978,Europe/Berlin,303150
Djibouti,Djibouti,DJ,11.595,43.1481,Africa/Djibouti,603900
Ali Sabieh,Djibouti,DJ,11.1558,42.7125,Africa/Djibouti,71230
Dikhil,Djibouti,DJ,11.1086,42.3667,Africa/Djibouti,35000
Obock,Djibouti,DJ,11.9667,43.2833,Africa/Djibouti,21200
Tadjourah,Djibouti,DJ,11.7833,42.8833,Africa/Djibouti,14820
Arta,Djibouti,DJ,11.5219,42.84,Africa/Djibouti,11221
Copenhagen,Denmark,DK,55.6761,12.5689,Europe/Copenhagen,1396508
Aarhus,Denmark,DK,56.1564,10.2097,Europe/Copenhagen,301049
Odense,Denmark,DK,55.4,10.3833,Europe/Copenhagen,185480
Aalborg,Denmark,DK,57.05,9.9167,Europe/Copenhagen,143598
Esbjerg,Denmark,DK,55.4708,8.4514,Europe/Copenhagen,71554
Randers,Denmark,DK,56.4569,10.0392,Europe/Copenhagen,64674
Horsens,Denmark,DK,55.8619,9.8519,Europe/Copenhagen,64418
Kolding,Denmark,DK,55.4908,9.4722,Europe/Copenhagen,63645
Vejle,Denmark,DK,55.7083,9.5333,Europe/Copenhagen,62011
Roskilde,Denmark,DK,55.6417,12.0808,Europe/Copenhagen,53354
Herning,Denmark,DK,56.1361,8.9767,Europe/Copenhagen,51312
Silkeborg,Denmark,DK,56.1667,9.55,Europe/Copenhagen,50866
Hørsholm,Denmark,DK,55.8786,12.4992,Europe/Copenhagen,47489
Helsingør,Denmark,DK,56.036,12.6106,Europe/Copenhagen,47364
Næstved,Denmark,DK,55.2333,11.7667,Europe/Copenhagen,44996
Fredericia,Denmark,DK,55.5644,9.7597,Europe/Copenhagen,41243
Viborg,Denmark,DK,56.45,9.4,Europe/Copenhagen,41079
Køge,Denmark,DK,55.45,12.1833,Europe/Copenhagen,38588
Taastrup,Denmark,DK,55.65,12.3,Europe/Copenhagen,37231
Holstebro,Denmark,DK,56.3581,8.6175,Europe/Copenhagen,37220
Hillerød,Denmark,DK,55.9333,12.3,Europe/Copenhagen,36043
Slagelse,Denmark,DK,55.4008,11.35,Europe/Copenhagen,35817
Holbæk,Denmark,DK,55.7181,11.7103,Europe/Copenhagen,29960
Sønderborg,Denmark,DK,54.9114,9.7867,Europe/Copenhagen,27595
Svendborg,Denmark,DK,55.0597,10.61,Europe/Copenhagen,27210
Roseau,Dominica,DM,15.3,-61.3833,America/Dominica,16571
Santo Domingo,Dominican Republic,DO,18.4625,-69.9361,America/Santo_Domingo,4274651
Santiago,Dominican Republic,DO,19.45,-70.7,America/Santo_Domingo,1343423
Santo Domingo Este,Dominican Republic,DO,18.4855,-69.8734,America/Santo_Domingo,948855
Puerto Plata,Dominican Republic,DO,19.7958,-70.6944,America/Santo_Domingo,338339
La Vega,Dominican Republic,DO,19.2242,-70.5283,America/Santo_Domingo,282055
San Cristóbal,Dominican Republic,DO,18.4167,-70.1333,America/Santo_Domingo,275232
Los Alcarrizos,Dominican Republic,DO,18.5167,-70.0167,America/Santo_Domingo,272776
Higüey,Dominican Republic,DO,18.6181,-68.7111,America/Santo_Domingo,251243
San Pedro de Macorís,Dominican Republic,DO,18.4572,-69.3061,America/Santo_Domingo,217141
San Francisco de Macorís,Dominican Republic,DO,19.3,-70.25,America/Santo_Domingo,188118
San Juan,Dominican Republic,DO,18.81,-71.23,America/Santo_Domingo,169032
Bonao,Dominican Republic,DO,18.9333,-70.4,America/Santo_Domingo,158034
Baní,Dominican Republic,DO,18.29,-70.33,America/Santo_Domingo,157316
Bávaro,Dominican Republic,DO,18.7167,-68.45,America/Santo_Domingo,150000
La Romana,Dominican Republic,DO,18.43,-68.97,America/Santo_Domingo,149840
Pantanal,Dominican Republic,DO,18.5586,-68.3694,America/Santo_Domingo,138919
Gurabo al Medio,Dominican Republic,DO,19.4739,-70.6727,America/Santo_Domingo,126668
Samaná,Dominican Republic,DO,19.2053,-69.3364,America/Santo_Domingo,108179
Mao,Dominican Republic,DO,19.5556,-71.0778,America/Santo_Domingo,106818
Boca Chica,Dominican Republic,DO,18.4539,-69.6064,America/Santo_Domingo,104951
Los Minas,Dominican Republic,DO,18.4167,-69.6333,America/Santo_Domingo,104846
Azua,Dominican Republic,DO,18.46,-70.74,America/Santo_Domingo,103276
Sabaneta,Dominican Republic,DO,19.4833,-71.35,America/Santo_Domingo,98453
Moca,Dominican Republic,DO,19.3833,-70.5167,America/Santo_Domingo,94981
Villa Altagracia,Dominican Republic,DO,18.67,-70.17,America/Santo_Domingo,84312
Algiers,Algeria,DZ,36.7764,3.0586,Africa/Algiers,3004000
Oran,Algeria,DZ,35.6969,-0.6331,Africa/Algiers,920000
Blida,Algeria,DZ,36.4722,2.8333,Africa/Algiers,520000
Constantine,Algeria,DZ,36.365,6.6147,Africa/Algiers,465138
Batna,Algeria,DZ,35.55,6.1667,Africa/Algiers,290645
Sétif,Algeria,DZ,36.19,5.41,Africa/Algiers,288461
El Khroub,Algeria,DZ,36.2633,6.6936,Africa/Algiers,279812
Djelfa,Algeria,DZ,34.6667,3.25,Africa/Algiers,265833
Annaba,Algeria,DZ,36.9,7.7667,Africa/Algiers,257359
Sidi Aïssa,Algeria,DZ,35.8864,3.7756,Africa/Algiers,215000
Sidi Bel Abbès,Algeria,DZ,35.2,-0.6333,Africa/Algiers,212935
Biskra,Algeria,DZ,34.85,5.7333,Africa/Algiers,204661
Tébessa,Algeria,DZ,35.4,8.1167,Africa/Algiers,194461
Ouargla,Algeria,DZ,31.95,5.3167,Africa/Algiers,191136
Tiaret,Algeria,DZ,35.3667,1.3167,Africa/Algiers,178915
Bejaïa,Algeria,DZ,36.7511,5.0642,Africa/Algiers,176139
Tlemcen,Algeria,DZ,34.8828,-1.3167,Africa/Algiers,173531
Bir el Djir,Algeria,DZ,35.7367,-0.5542,Africa/Algiers,171883
Bordj Bou Arreridj,Algeria,DZ,36.0667,4.7667,Africa/Algiers,168346
Béchar,Algeria,DZ,31.6164,-2.2183,Africa/Algiers,165627
Skikda,Algeria,DZ,36.8667,6.9,Africa/Algiers,163318
Tizi Ouzou,Algeria,DZ,36.7169,4.0497,Africa/Algiers,156775
Souk Ahras,Algeria,DZ,36.2864,7.9511,Africa/Algiers,155259
Chlef,Algeria,DZ,36.1647,1.3317,Africa/Algiers,155134
El Eulma,Algeria,DZ,36.1528,5.69,Africa/Algiers,155038
Guayaquil,Ecuador,EC,-2.19,-79.8875,America/Guayaquil,3094420
Quito,Ecuador,EC,-0.22,-78.5125,America/Guayaquil,1763275
Cuenca,Ecuador,EC,-2.8974,-79.0045,America/Guayaquil,361524
Santo Domingo de los Colorados,Ecuador,EC,-0.2542,-79.1719,America/Guayaquil,334826
Eloy Alfaro,Ecuador,EC,-2.1733,-79.8311,America/Guayaquil,295211
Machala,Ecuador,EC,-3.2667,-79.9667,America/Guayaquil,288072
Manta,Ecuador,EC,-0.95,-80.7162,America/Guayaquil,258697
Portoviejo,Ecuador,EC,-1.0544,-80.4544,America/Guayaquil,244129
Loja,Ecuador,EC,-3.9906,-79.205,America/Guayaquil,203496
Quevedo,Ecuador,EC,-1.0333,-79.45,America/Guayaquil,177792
Ambato,Ecuador,EC,-1.2422,-78.6289,America/Guayaquil,177316
Riobamba,Ecuador,EC,-1.6731,-78.6483,America/Guayaquil,177213
Daule,Ecuador,EC,-1.8667,-79.9833,America/Guayaquil,161498
Milagro,Ecuador,EC,-2.1347,-79.5872,America/Guayaquil,159970
Ibarra,Ecuador,EC,0.3628,-78.13,America/Guayaquil,157941
Esmeraldas,Ecuador,EC,0.95,-79.6667,America/Guayaquil,155487
La Libertad,Ecuador,EC,-2.2333,-80.9,America/Guayaquil,112154
Babahoyo,Ecuador,EC,-1.8167,-79.5167,America/Guayaquil,98251
Sangolquí,Ecuador,EC,-0.3344,-78.4475,America/Guayaquil,96647
Latacunga,Ecuador,EC,-0.9333,-78.6167,America/Guayaquil,77267
Montecristi,Ecuador,EC,-1.05,-80.6667,America/Guayaquil,71066
Pujilí,Ecuador,EC,-0.95,-78.69,America/Guayaquil,66980
Pasaje,Ecuador,EC,-3.3269,-79.8049,America/Guayaquil,60147
Santa Rosa,Ecuador,EC,-3.4522,-79.9617,America/Guayaquil,56842
Tulcán,Ecuador,EC,0.8117,-77.7186,America/Guayaquil,56719
Tallinn,Estonia,EE,59.4372,24.745,Europe/Tallinn,457572
Tartu,Estonia,EE,58.38,26.7225,Europe/Tallinn,97759
Narva,Estonia,EE,59.3792,28.2006,Europe/Tallinn,53360
Pärnu,Estonia,EE,58.3844,24.4989,Europe/Tallinn,41520
Kohtla-Järve,Estonia,EE,59.4,27.2833,Europe/Tallinn,33434
Viljandi,Estonia,EE,58.3633,25.5956,Europe/Tallinn,17255
Maardu,Estonia,EE,59.4781,25.0161,Europe/Tallinn,17017
Rakvere,Estonia,EE,59.3506,26.3611,Europe/Tallinn,15695
Kuressaare,Estonia,EE,58.2533,22.4861,Europe/Tallinn,13185
Sillamäe,Estonia,EE,59.3931,27.7742,Europe/Tallinn,12352
Valga,Estonia,EE,57.7769,26.0311,Europe/Tallinn,12173
Võru,Estonia,EE,57.8486,26.9928,Europe/Tallinn,12112
Keila,Estonia,EE,59.3086,24.4225,Europe/Tallinn,10964
Jõhvi,Estonia,EE,59.3575,27.4122,Europe/Tallinn,10880
Haapsalu,Estonia,EE,58.9469,23.5369,Europe/Tallinn,9812
Paide,Estonia,EE,58.8833,25.5667,Europe/Tallinn,8073
Põlva,Estonia,EE,58.0536,27.0556,Europe/Tallinn,5498
Rapla,Estonia,EE,58.9944,24.8011,Europe/Tallinn,5355
Jõgeva,Estonia,EE,58.7461,26.3956,Europe/Tallinn,5112
Kärdla,Estonia,EE,58.9944,22.75,Europe/Tallinn,2921
Cairo,Egypt,EG,30.0444,31.2358,Africa/Cairo,20296000
Alexandria,Egypt,EG,31.1975,29.8925,Africa/Cairo,5441866
Giza,Egypt,EG,29.987,31.2118,Africa/Cairo,4458135
Shubrā al Khaymah,Egypt,EG,30.1286,31.2422,Africa/Cairo,1025569
Port Said,Egypt,EG,31.2625,32.3061,Africa/Cairo,791749
Suez,Egypt,EG,29.9667,32.5333,Africa/Cairo,716458
Al Manşūrah,Egypt,EG,31.05,31.3833,Africa/Cairo,621953
Ḩalwān,Egypt,EG,29.8493,31.3327,Africa/Cairo,619293
Al Maḩallah al Kubrá,Egypt,EG,30.9667,31.1667,Africa/Cairo,592573
Asyūţ,Egypt,EG,27.1869,31.1714,Africa/Cairo,562061
Abū Ţisht,Egypt,EG,26.0981,32.0936,Africa/Cairo,536016
Al Fayyūm,Egypt,EG,29.3,30.8333,Africa/Cairo,519047
Awsīm,Egypt,EG,30.1222,31.1333,Africa/Cairo,430609
Ţanţā,Egypt,EG,30.7833,31.0,Africa/Cairo,429503
Ismailia,Egypt,EG,30.5833,32.2667,Africa/Cairo,429465
Samannūd,Egypt,EG,30.9622,31.2425,Africa/Cairo,410388
Madīnat as Sādis min Uktūbar,Egypt,EG,29.9361,30.9269,Africa/Cairo,376302
Damanhūr,Egypt,EG,31.05,30.4667,Africa/Cairo,329572
Basyūn,Egypt,EG,30.9364,30.8111,Africa/Cairo,320056
Az Zaqāzīq,Egypt,EG,30.5667,31.5,Africa/Cairo,302840
Banī Suwayf,Egypt,EG,29.0667,31.0833,Africa/Cairo,294125
Qillīn,Egypt,EG,31.0464,30.8546,Africa/Cairo,284853
Shibīn al Kawm,Egypt,EG,30.55,31.0,Africa/Cairo,267945
Al ‘Āshir min Ramaḑān,Egypt,EG,30.2964,31.7463,Africa/Cairo,263321
Qinā,Egypt,EG,26.1667,32.7167,Africa/Cairo,252883
Asmara,Eritrea,ER,15.3333,38.9167,Africa/Asmara,963000
Keren,Eritrea,ER,15.7833,38.45,Africa/Asmara,146500
Assab,Eritrea,ER,13.0078,42.7411,Africa/Asmara,74405
Massawa,Eritrea,ER,15.6,39.4333,Africa/Asmara,39758
Mendefera,Eritrea,ER,14.8833,38.8167,Africa/Asmara,28492
Dbarwa,Eritrea,ER,15.0916,38.833,Africa/Asmara,25000
Ādī-Teklezan,Eritrea,ER,15.5672,38.7786,Africa/Asmara,15000
Bēylul,Eritrea,ER,13.2639,42.3347,Africa/Asmara,14055
Adi Keyh,Eritrea,ER,14.8333,39.3667,Africa/Asmara,13061
Ghinda’e,Eritrea,ER,15.45,39.0833,Africa/Asmara,11560
Edd,Eritrea,ER,13.9333,41.7,Africa/Asmara,11259
Dek’emhāre,Eritrea,ER,15.07,39.0475,Africa/Asmara,10959
Omhājer,Eritrea,ER,14.323,36.6532,Africa/Asmara,9000
Ak’ordat,Eritrea,ER,15.55,37.8833,Africa/Asmara,8857
Nefasīt,Eritrea,ER,15.3333,39.0619,Africa/Asmara,8600
Teseney,Eritrea,ER,15.11,36.6575,Africa/Asmara,3753
Barentu,Eritrea,ER,15.1167,37.6,Africa/Asmara,2500
Gwelej,Eritrea,ER,14.75,36.7167,Africa/Asmara,0
Madrid,Spain,ES,40.4169,-3.7033,Europe/Madrid,6211000
Barcelona,Spain,ES,41.3825,2.1769,Europe/Madrid,4800000
Valencia,Spain,ES,39.47,-0.3764,Europe/Madrid,1595000
Sevilla,Spain,ES,37.3886,-5.9956,Europe/Madrid,1100000
Bilbao,Spain,ES,43.2631,-2.935,Europe/Madrid,782000
Zaragoza,Spain,ES,41.65,-0.8833,Europe/Madrid,736649
Murcia,Spain,ES,37.9833,-1.1303,Europe/Madrid,672773
Las Palmas,Spain,ES,28.0997,-15.4133,Atlantic/Canary,635000
Málaga,Spain,ES,36.7167,-4.4167,Europe/Madrid,599063
Palma,Spain,ES,39.5667,2.6497,Europe/Madrid,550000
Santa Cruz,Spain,ES,28.4667,-16.25,Atlantic/Canary,538000
Granada,Spain,ES,37.175,-3.6,Europe/Madrid,502561
Alicante,Spain,ES,38.3453,-0.4831,Europe/Madrid,366221
Valladolid,Spain,ES,41.652,-4.7286,Europe/Madrid,302614
Vigo,Spain,ES,42.2358,-8.7267,Europe/Madrid,294489
Córdoba,Spain,ES,37.8916,-4.7728,Europe/Madrid,290022
Gijón,Spain,ES,43.5293,-5.6773,Europe/Madrid,269894
Vitoria-Gasteiz,Spain,ES,42.8467,-2.6731,Europe/Madrid,260699
A Coruña,Spain,ES,43.3739,-8.4,Europe/Madrid,251543
Elche,Spain,ES,38.2669,-0.6983,Europe/Madrid,245557
Tarrasa,Spain,ES,41.5611,2.0081,Europe/Madrid,233270
Badalona,Spain,ES,41.4333,2.2333,Europe/Madrid,231542
Sabadell,Spain,ES,41.5483,2.1075,Europe/Madrid,225368
Oviedo,Spain,ES,43.3625,-5.8503,Europe/Madrid,223968
Cartagena,Spain,ES,37.6019,-0.9842,Europe/Madrid,220704
Addis Ababa,Ethiopia,ET,9.0358,38.7525,Africa/Addis_Ababa,5704000
Sodo,Ethiopia,ET,6.86,37.76,Africa/Addis_Ababa,512498
Warder,Ethiopia,ET,6.9667,45.3333,Africa/Addis_Ababa,450400
Debre Birhan,Ethiopia,ET,9.6786,39.5333,Africa/Addis_Ababa,436711
Shashemenē,Ethiopia,ET,7.2,38.5833,Africa/Addis_Ababa,407000
Nazrēt,Ethiopia,ET,8.55,39.2667,Africa/Addis_Ababa,324000
Gonder,Ethiopia,ET,12.6,37.4667,Africa/Addis_Ababa,323900
Mekele,Ethiopia,ET,13.4969,39.4769,Africa/Addis_Ababa,323700
Āwasa,Ethiopia,ET,7.05,38.4667,Africa/Addis_Ababa,300100
Dire Dawa,Ethiopia,ET,9.5833,41.8667,Africa/Addis_Ababa,277000
Bahir Dar,Ethiopia,ET,11.585,37.39,Africa/Addis_Ababa,243300
Gelemso,Ethiopia,ET,8.8167,40.5167,Africa/Addis_Ababa,241200
Desē,Ethiopia,ET,11.1333,39.6333,Africa/Addis_Ababa,187900
Jīma,Ethiopia,ET,7.6667,36.8333,Africa/Addis_Ababa,177900
Harar,Ethiopia,ET,9.3111,42.1278,Africa/Addis_Ababa,157000
Āwarē,Ethiopia,ET,8.2561,44.1567,Africa/Addis_Ababa,132149
Jijiga,Ethiopia,ET,9.35,42.8,Africa/Addis_Ababa,125876
Mersa,Ethiopia,ET,11.6667,39.6583,Africa/Addis_Ababa,111000
Āsela,Ethiopia,ET,7.95,39.1167,Africa/Addis_Ababa,110088
Babīlē,Ethiopia,ET,9.225,42.3333,Africa/Addis_Ababa,100000
Debre Zeyit,Ethiopia,ET,8.75,38.9833,Africa/Addis_Ababa,99928
Mīzan Teferī,Ethiopia,ET,7.0,35.5833,Africa/Addis_Ababa,91437
Āngach’a,Ethiopia,ET,7.3333,37.8333,Africa/Addis_Ababa,88083
Yabēlo,Ethiopia,ET,4.8833,38.0833,Africa/Addis_Ababa,86400
Kombolcha,Ethiopia,ET,11.0856,39.7381,Africa/Addis_Ababa,85367
Helsinki,Finland,FI,60.1708,24.9375,Europe/Helsinki,1360075
Tampere,Finland,FI,61.4981,23.76,Europe/Helsinki,369233
Espoo,Finland,FI,60.2056,24.6556,Europe/Helsinki,325716
Vantaa,Finland,FI,60.2944,25.0403,Europe/Helsinki,248199
Oulu,Finland,FI,65.0142,25.4719,Europe/Helsinki,217469
Turku,Finland,FI,60.4517,22.2669,Europe/Helsinki,209633
Jyväskylä,Finland,FI,62.2403,25.7444,Europe/Helsinki,149895
Kuopio,Finland,FI,62.8925,27.6783,Europe/Helsinki,126572
Lahti,Finland,FI,60.9804,25.655,Europe/Helsinki,121832
Pori,Finland,FI,61.4867,21.7975,Europe/Helsinki,84026
Joensuu,Finland,FI,62.6,29.7639,Europe/Helsinki,79129
Kouvola,Finland,FI,60.8681,26.7042,Europe/Helsinki,78824
Lappeenranta,Finland,FI,61.0583,28.1861,Europe/Helsinki,73241
Vaasa,Finland,FI,63.0958,21.6153,Europe/Helsinki,71209
Hämeenlinna,Finland,FI,60.9944,24.4667,Europe/Helsinki,68614
Seinäjoki,Finland,FI,62.7903,22.8403,Europe/Helsinki,67283
Rovaniemi,Finland,FI,66.5028,25.7285,Europe/Helsinki,65329
Mikkeli,Finland,FI,61.6875,27.2736,Europe/Helsinki,51551
Porvoo,Finland,FI,60.3931,25.6639,Europe/Helsinki,51464
Salo,Finland,FI,60.3831,23.1331,Europe/Helsinki,51056
Kotka,Finland,FI,60.4667,26.9458,Europe/Helsinki,50029
Kokkola,Finland,FI,63.8376,23.132,Europe/Helsinki,48338
Hyvinkää,Finland,FI,60.6306,24.8597,Europe/Helsinki,47015
Järvenpää,Finland,FI,60.4722,25.0889,Europe/Helsinki,46944
Lohja,Finland,FI,60.25,24.0667,Europe/Helsinki,45645
Suva,Fiji,FJ,-18.1333,178.4333,Pacific/Fiji,185913
Nadi,Fiji,FJ,-17.8,177.4167,Pacific/Fiji,71048
Nausori,Fiji,FJ,-18.0244,178.5454,Pacific/Fiji,57882
Lautoka,Fiji,FJ,-17.6242,177.4528,Pacific/Fiji,52220
Labasa,Fiji,FJ,-16.4333,179.3667,Pacific/Fiji,27949
Lami,Fiji,FJ,-18.1167,178.4167,Pacific/Fiji,20529
Nakasi,Fiji,FJ,-18.0667,178.5167,Pacific/Fiji,18919
Ba,Fiji,FJ,-17.5333,177.6833,Pacific/Fiji,18526
Sigatoka,Fiji,FJ,-18.15,177.5,Pacific/Fiji,9622
Stanley,Falkland Islands (Islas Malvinas),FK,-51.7,-57.85,Atlantic/Stanley,2213
Weno,"Micronesia, Federated States of",FM,7.45,151.85,Pacific/Chuuk,13900
Palikir,"Micronesia, Federated States of",FM,6.9178,158.185,Pacific/Pohnpei,6227
Kolonia,"Micronesia, Federated States of",FM,6.9639,158.2081,Pacific/Pohnpei,6074
Colonia,"Micronesia, Federated States of",FM,9.5144,138.1292,Pacific/Chuuk,3126
Tofol,"Micronesia, Federated States of",FM,5.3258,163.0086,Pacific/Kosrae,2591
Tórshavn,Faroe Islands,FO,62.0098,-6.7713,Atlantic/Faroe,14038
Klaksvík,Faroe Islands,FO,62.2239,-6.5786,Atlantic/Faroe,4997
Hvalba,Faroe Islands,FO,61.6,-6.9556,Atlantic/Faroe,713
Skopun,Faroe Islands,FO,61.9125,-6.8719,Atlantic/Faroe,446
Hvannasund,Faroe Islands,FO,62.2833,-6.5167,Atlantic/Faroe,414
Porkeri,Faroe Islands,FO,61.4814,-6.7458,Atlantic/Faroe,297
Fámjin,Faroe Islands,FO,61.5264,-6.8769,Atlantic/Faroe,83
Eiði,Faroe Islands,FO,62.2995,-7.0924,Atlantic/Faroe,0
Fuglafjørður,Faroe Islands,FO,62.2448,-6.815,Atlantic/Faroe,0
Hov,Faroe Islands,FO,61.5068,-6.7599,Atlantic/Faroe,0
Húsavík,Faroe Islands,FO,61.8099,-6.6813,Atlantic/Faroe,0
Kirkja,Faroe Islands,FO,62.3263,-6.3238,Atlantic/Faroe,0
Kunoy,Faroe Islands,FO,62.2917,-6.6702,Atlantic/Faroe,0
Kvívík,Faroe Islands,FO,62.1186,-7.0737,Atlantic/Faroe,0
Norðragøta,Faroe Islands,FO,62.199,-6.7432,Atlantic/Faroe,0
Oyrarbakki,Faroe Islands,FO,62.2079,-6.9997,Atlantic/Faroe,0
Saltangará,Faroe Islands,FO,62.1156,-6.7206,Atlantic/Faroe,0
Sandavágur,Faroe Islands,FO,62.0537,-7.1498,Atlantic/Faroe,0
Sandur,Faroe Islands,FO,61.8344,-6.8171,Atlantic/Faroe,0
Skálavík,Faroe Islands,FO,61.8314,-6.6623,Atlantic/Faroe,0
Skúvoy,Faroe Islands,FO,61.771,-6.805,Atlantic/Faroe,0
Strendur,Faroe Islands,FO,62.1096,-6.7617,Atlantic/Faroe,0
Sumba,Faroe Islands,FO,61.4055,-6.709,Atlantic/Faroe,0
Sørvágur,Faroe Islands,FO,62.0717,-7.3066,Atlantic/Faroe,0
Toftir,Faroe Islands,FO,62.0978,-6.7369,Atlantic/Faroe,0
Paris,France,FR,48.8567,2.3522,Europe/Paris,11060000
Lyon,France,FR,45.7675,4.835,Europe/Paris,1716050
Marseille,France,FR,43.2967,5.3764,Europe/Paris,1635154
Toulouse,France,FR,43.6044,1.4433,Europe/Paris,1081726
Lille,France,FR,50.6319,3.0575,Europe/Paris,1063491
Bordeaux,France,FR,44.8379,-0.5795,Europe/Paris,994920
Nice,France,FR,43.7019,7.2683,Europe/Paris,944321
Nantes,France,FR,47.2172,-1.5539,Europe/Paris,683313
Rouen,France,FR,49.4431,1.1025,Europe/Paris,478593
Montpellier,France,FR,43.6109,3.8772,Europe/Paris,310240
Strasbourg,France,FR,48.5733,7.7522,Europe/Paris,293771
Orléans,France,FR,47.9022,1.9042,Europe/Paris,285926
Rennes,France,FR,48.1142,-1.6808,Europe/Paris,230890
Toulon,France,FR,43.125,5.9306,Europe/Paris,179116
Reims,France,FR,49.2653,4.0286,Europe/Paris,177674
Saint-Étienne,France,FR,45.4339,4.3897,Europe/Paris,173136
Le Havre,France,FR,49.4942,0.1081,Europe/Paris,166687
Villeurbanne,France,FR,45.7661,4.8794,Europe/Paris,163684
Dijon,France,FR,47.3231,5.0419,Europe/Paris,161830
Angers,France,FR,47.4728,-0.5556,Europe/Paris,159022
Grenoble,France,FR,45.1869,5.7264,Europe/Paris,156140
Nîmes,France,FR,43.8383,4.3597,Europe/Paris,151839
Aix-en-Provence,France,FR,43.5278,5.4456,Europe/Paris,149695
Clermont-Ferrand,France,FR,45.7797,3.0869,Europe/Paris,146351
Le Mans,France,FR,48.0042,0.1969,Europe/Paris,146249
Libreville,Gabon,GA,0.4078,9.4403,Africa/Libreville,899000
Port-Gentil,Gabon,GA,-0.7167,8.7833,Africa/Libreville,154632
Franceville,Gabon,GA,-1.6333,13.5833,Africa/Libreville,110568
Owendo,Gabon,GA,0.2833,9.5,Africa/Libreville,79300
Oyem,Gabon,GA,1.6,11.5736,Africa/Libreville,60685
Ntoum,Gabon,GA,0.3906,9.7608,Africa/Libreville,51954
Moanda,Gabon,GA,-1.5654,13.1894,Africa/Libreville,39298
Lambaréné,Gabon,GA,-0.6883,10.2319,Africa/Libreville,38775
Mouila,Gabon,GA,-1.8667,11.055,Africa/Libreville,36061
Tchibanga,Gabon,GA,-2.9331,10.9831,Africa/Libreville,30042
Bitam,Gabon,GA,2.0833,11.4833,Africa/Libreville,27923
Koulamoutou,Gabon,GA,-1.1333,12.4833,Africa/Libreville,25651
Makokou,Gabon,GA,0.5667,12.8667,Africa/Libreville,20653
Tsogni,Gabon,GA,-2.8,10.1167,Africa/Libreville,12977
Gamba,Gabon,GA,-2.725,10.0167,Africa/Libreville,10454
Okondja,Gabon,GA,-0.6833,13.7833,Africa/Libreville,10136
Ndendé,Gabon,GA,-2.4008,11.3581,Africa/Libreville,6022
Mayumba,Gabon,GA,-3.4167,10.65,Africa/Libreville,5208
Mitzic,Gabon,GA,0.7833,11.5667,Africa/Libreville,4926
Mékambo,Gabon,GA,1.0167,13.9333,Africa/Libreville,4891
Omboué,Gabon,GA,-1.5722,9.2639,Africa/Libreville,2362
Bifoun,Gabon,GA,-0.3333,10.3833,Africa/Libreville,134
London,United Kingdom,GB,51.5072,-0.1275,Europe/London,11262000
Birmingham,United Kingdom,GB,52.48,-1.9025,Europe/London,2590363
Portsmouth,United Kingdom,GB,50.8058,-1.0872,Europe/London,855679
Southampton,United Kingdom,GB,50.9025,-1.4042,Europe/London,855569
Bristol,United Kingdom,GB,51.4536,-2.5975,Europe/London,707412
Glasgow,United Kingdom,GB,55.8611,-4.25,Europe/London,626410
Manchester,United Kingdom,GB,53.479,-2.2452,Europe/London,547627
Leeds,United Kingdom,GB,53.7975,-1.5436,Europe/London,536280
Sheffield,United Kingdom,GB,53.3808,-1.4703,Europe/London,518090
Liverpool,United Kingdom,GB,53.4072,-2.9917,Europe/London,513441
Edinburgh,United Kingdom,GB,55.95,-3.1833,Europe/London,488050
Worthing,United Kingdom,GB,50.8147,-0.3714,Europe/London,474485
Leicester,United Kingdom,GB,52.6361,-1.1331,Europe/London,464395
Barnet,United Kingdom,GB,51.6444,-0.1997,Europe/London,402167.0
Newham,United Kingdom,GB,51.5275,0.0361,Europe/London,374523.0
Coventry,United Kingdom,GB,52.4081,-1.5106,Europe/London,362690
Caerdydd,United Kingdom,GB,51.4817,-3.1792,Europe/London,361469
Brent,United Kingdom,GB,51.5583,-0.2668,Europe/London,351017.0
Belfast,United Kingdom,GB,54.5967,-5.93,Europe/London,345006
Reading,United Kingdom,GB,51.4542,-0.9731,Europe/London,337108
Tower Hamlets,United Kingdom,GB,51.5163,-0.0362,Europe/London,331886.0
Hillingdon,United Kingdom,GB,51.5329,-0.455,Europe/London,321134.0
Redbridge,United Kingdom,GB,51.5827,0.0701,Europe/London,319423.0
Southwark,United Kingdom,GB,51.4988,-0.0901,Europe/London,314786.0
Kingston upon Hull,United Kingdom,GB,53.7444,-0.3325,Europe/London,314018
Saint George’s,Grenada,GD,12.0525,-61.7531,America/Grenada,33734
Saint David’s,Grenada,GD,12.0628,-61.6606,America/Grenada,12
Tbilisi,Georgia,GE,41.7225,44.7925,Asia/Tbilisi,1118035
Batumi,Georgia,GE,41.6458,41.6417,Asia/Tbilisi,169095
Kutaisi,Georgia,GE,42.2717,42.7056,Asia/Tbilisi,147900
Rustavi,Georgia,GE,41.5436,45.0117,Asia/Tbilisi,132333
Sokhumi,Georgia,GE,43.0036,41.0192,Asia/Tbilisi,64441
Gori,Georgia,GE,41.9817,44.1124,Asia/Tbilisi,44524
Poti,Georgia,GE,42.15,41.6667,Asia/Tbilisi,41500
Zugdidi,Georgia,GE,42.5081,41.8725,Asia/Tbilisi,41494
Gagra,Georgia,GE,43.2808,40.2669,Asia/Tbilisi,26636
Khashuri,Georgia,GE,41.9975,43.5986,Asia/Tbilisi,25200
Marneuli,Georgia,GE,41.4872,44.7981,Asia/Tbilisi,24928
Akhaltsikhe,Georgia,GE,41.6389,42.9861,Asia/Tbilisi,24570
Zest’aponi,Georgia,GE,42.1083,43.0417,Asia/Tbilisi,24158
Ozurgeti,Georgia,GE,41.923,42.005,Asia/Tbilisi,23399
T’q’ibuli,Georgia,GE,42.3503,42.9983,Asia/Tbilisi,23153
Samtredia,Georgia,GE,42.1625,42.3417,Asia/Tbilisi,22201
Senaki,Georgia,GE,42.2689,42.0678,Asia/Tbilisi,21596
Tsqaltubo,Georgia,GE,42.3264,42.6006,Asia/Tbilisi,21280
Telavi,Georgia,GE,41.9169,45.4764,Asia/Tbilisi,19509
Gardabani,Georgia,GE,41.4608,45.0894,Asia/Tbilisi,17176
Kobuleti,Georgia,GE,41.8111,41.7753,Asia/Tbilisi,16546
Khoni,Georgia,GE,42.3264,42.4228,Asia/Tbilisi,14549
Chiatura,Georgia,GE,42.2894,43.2836,Asia/Tbilisi,12803
Kaspi,Georgia,GE,41.9244,44.4189,Asia/Tbilisi,12708
Borjomi,Georgia,GE,41.8417,43.3828,Asia/Tbilisi,11194
Cayenne,French Guiana,GF,4.9386,-52.335,America/Cayenne,62675
Kourou,French Guiana,GF,5.1583,-52.6428,America/Cayenne,24824
Roura,French Guiana,GF,4.7283,-52.3242,America/Cayenne,3449
Sinnamary,French Guiana,GF,5.3775,-52.9586,America/Cayenne,2756
Saint-Georges,French Guiana,GF,3.8886,-51.8024,America/Cayenne,2742
Iracoubo,French Guiana,GF,5.48,-53.2056,America/Cayenne,1662
Saint-Laurent-du-Maroni,French Guiana,GF,5.5039,-54.0289,America/Cayenne,0
Saint Peter Port,Guernsey,GG,49.46,-2.5519,Europe/Guernsey,19295
Saint Sampson,Guernsey,GG,49.4819,-2.5411,Europe/Guernsey,9033
Kumasi,Ghana,GH,6.7,-1.625,Africa/Accra,3903480
Accra,Ghana,GH,5.556,-0.1969,Africa/Accra,1782150
Tamale,Ghana,GH,9.4075,-0.8533,Africa/Accra,1095808
Ashaiman,Ghana,GH,5.6986,-0.0344,Africa/Accra,208060
Cape Coast,Ghana,GH,5.1,-1.25,Africa/Accra,189925
Obuase,Ghana,GH,6.2023,-1.668,Africa/Accra,180460
Tema,Ghana,GH,5.6667,-0.0167,Africa/Accra,161612
Koforidua,Ghana,GH,6.0941,-0.2591,Africa/Accra,127334
Suhum,Ghana,GH,6.04,-0.45,Africa/Accra,126403
Ho,Ghana,GH,6.6114,0.4703,Africa/Accra,125914
Medina Estates,Ghana,GH,5.6658,-0.1631,Africa/Accra,112888
Domaa-Ahenkro,Ghana,GH,7.2833,-2.8833,Africa/Accra,112111
Wa,Ghana,GH,10.0667,-2.5,Africa/Accra,107214
Atebubu,Ghana,GH,7.7554,-0.9808,Africa/Accra,105938
Bolgatanga,Ghana,GH,10.7856,-0.8514,Africa/Accra,89255
Ahenkro,Ghana,GH,7.1164,0.3242,Africa/Accra,80813
Sunyani,Ghana,GH,7.3333,-2.3333,Africa/Accra,75366
Gbawe,Ghana,GH,5.5833,-0.3,Africa/Accra,74403
Konongo,Ghana,GH,6.6167,-1.2167,Africa/Accra,71238
Ejura,Ghana,GH,7.3856,-1.3562,Africa/Accra,70807
Swedru,Ghana,GH,5.5306,-0.7028,Africa/Accra,68216
Techiman,Ghana,GH,7.5905,-1.9395,Africa/Accra,67241
Aflao,Ghana,GH,6.1198,1.1901,Africa/Accra,66546
Berekum,Ghana,GH,7.45,-2.5833,Africa/Accra,62364
Nkawkaw,Ghana,GH,6.55,-0.7667,Africa/Accra,61785
Gibraltar,Gibraltar,GI,36.14,-5.35,Europe/Gibraltar,34003
Nuuk,Greenland,GL,64.175,-51.7333,America/Nuuk,18326
Sisimiut,Greenland,GL,66.9389,-53.6722,America/Nuuk,5582
Ilulissat,Greenland,GL,69.2167,-51.1,America/Nuuk,4737
Aasiaat,Greenland,GL,68.7097,-52.8694,America/Nuuk,3069
Qaqortoq,Greenland,GL,60.7167,-46.0333,America/Nuuk,3050
Tasiilaq,Greenland,GL,65.615,-37.641,America/Nuuk,1985
Uummannaq,Greenland,GL,70.6747,-52.1264,America/Nuuk,1407
Paamiut,Greenland,GL,61.9956,-49.6636,America/Nuuk,1308
Upernavik,Greenland,GL,72.7839,-56.1506,America/Nuuk,1092
Qasigiannguit,Greenland,GL,68.8201,-51.1932,America/Nuuk,1081
Godhavn,Greenland,GL,69.2472,-53.5333,America/Nuuk,839
Qaanaaq,Greenland,GL,77.4673,-69.2294,America/Thule,646
Kullorsuaq,Greenland,GL,74.58,-57.22,America/Nuuk,459
Kulusuk,Greenland,GL,65.5757,-37.1838,America/Nuuk,433
Scoresbysund,Greenland,GL,70.4853,-21.9667,America/Scoresbysund,345
Kangersuatsiaq,Greenland,GL,72.3797,-55.55,America/Nuuk,279
Tasiusaq,Greenland,GL,73.3689,-56.0556,America/Nuuk,267
Kraulshavn,Greenland,GL,74.1111,-57.0611,America/Nuuk,226
Narsarsuaq,Greenland,GL,61.1458,-45.4347,America/Nuuk,195
Savissivik,Greenland,GL,76.0166,-65.0833,America/Thule,55
Nord,Greenland,GL,81.7167,-17.8,America/Nuuk,10
Timmiarmiut,Greenland,GL,62.5333,-42.2167,America/Nuuk,10
Banjul,"Gambia, The",GM,13.4531,-16.5775,Africa/Banjul,413397
Serekunda,"Gambia, The",GM,13.445,-16.675,Africa/Banjul,382096
Kanifing,"Gambia, The",GM,13.45,-16.6667,Africa/Banjul,379348
Kerewan,"Gambia, The",GM,13.5,-16.0833,Africa/Banjul,225516
Brikama,"Gambia, The",GM,13.2667,-16.65,Africa/Banjul,81007
Bakau,"Gambia, The",GM,13.4797,-16.6736,Africa/Banjul,43098
Sukuta,"Gambia, The",GM,13.4144,-16.7072,Africa/Banjul,40675
Sareh Mowndeh,"Gambia, The",GM,13.4039,-16.6831,Africa/Banjul,36134
Farafenni,"Gambia, The",GM,13.5667,-15.6,Africa/Banjul,36000
Lamin,"Gambia, The",GM,13.3858,-16.6428,Africa/Banjul,31133
Mansa Konko,"Gambia, The",GM,13.4667,-15.55,Africa/Banjul,18672
Basse Santa Su,"Gambia, The",GM,13.3167,-14.2167,Africa/Banjul,18414
Gunjur,"Gambia, The",GM,13.2019,-16.7339,Africa/Banjul,17520
Essau,"Gambia, The",GM,13.4833,-16.5333,Africa/Banjul,14560
Busumbala,"Gambia, The",GM,13.3333,-16.6667,Africa/Banjul,11189
Brikama Ba,"Gambia, The",GM,13.5333,-14.9333,Africa/Banjul,10343
Gambissara,"Gambia, The",GM,13.2333,-14.3167,Africa/Banjul,10102
Diabugu,"Gambia, The",GM,13.3833,-14.4,Africa/Banjul,9000
Bansang,"Gambia, The",GM,13.4333,-14.6556,Africa/Banjul,8843
Janjanbureh,"Gambia, The",GM,13.5341,-14.7662,Africa/Banjul,3998
Conakry,Guinea,GN,9.5092,-13.7122,Africa/Conakry,1667864
Siguiri,Guinea,GN,11.4189,-9.1644,Africa/Conakry,436555
Mamou,Guinea,GN,10.3833,-12.0833,Africa/Conakry,376269
N’Zérékoré,Guinea,GN,7.7522,-8.8217,Africa/Conakry,316065
Guéckédou,Guinea,GN,8.5667,-10.1333,Africa/Conakry,221715
Kamsar,Guinea,GN,10.65,-14.6167,Africa/Conakry,200748
Kankan,Guinea,GN,10.3833,-9.3,Africa/Conakry,190772
Kindia,Guinea,GN,10.0497,-12.8542,Africa/Conakry,181126
Boké,Guinea,GN,10.9314,-14.2892,Africa/Conakry,130944
Labé,Guinea,GN,11.3167,-12.2833,Africa/Conakry,107695
Kissidougou,Guinea,GN,9.1833,-10.1,Africa/Conakry,102675
Fria,Guinea,GN,10.3668,-13.5825,Africa/Conakry,84896
Faranah,Guinea,GN,10.0333,-10.7333,Africa/Conakry,78108
Dabola,Guinea,GN,10.75,-11.1167,Africa/Conakry,72539
Kouroussa,Guinea,GN,10.65,-9.8833,Africa/Conakry,69215
Dinguiraye,Guinea,GN,11.2906,-10.7122,Africa/Conakry,47250
Koundara,Guinea,GN,12.4833,-13.3,Africa/Conakry,46199
Macenta,Guinea,GN,8.55,-9.4667,Africa/Conakry,43900
Kéniéran,Guinea,GN,11.0667,-8.8167,Africa/Conakry,37944
Kérouané,Guinea,GN,9.2667,-9.0167,Africa/Conakry,35738
Tougué,Guinea,GN,11.45,-11.6833,Africa/Conakry,32975
Télimélé,Guinea,GN,10.9,-13.0333,Africa/Conakry,30311
Yomou,Guinea,GN,7.566,-9.2533,Africa/Conakry,29138
Sékourou,Guinea,GN,9.6167,-12.8167,Africa/Conakry,28595
Gaoual,Guinea,GN,11.75,-13.2,Africa/Conakry,26968
Pointe-à-Pitre,Guadeloupe,GP,16.2411,-61.5331,America/Guadeloupe,15040
Saint-François,Guadeloupe,GP,16.2514,-61.2739,America/Guadeloupe,13942
Saint-Claude,Guadeloupe,GP,16.0272,-61.6983,America/Guadeloupe,10177
Basse-Terre,Guadeloupe,GP,15.9969,-61.7328,America/Guadeloupe,9417
Malabo,Equatorial Guinea,GQ,3.7521,8.7737,Africa/Malabo,297000
Bata,Equatorial Guinea,GQ,1.865,9.77,Africa/Malabo,290000
Sevilla de Niefang,Equatorial Guinea,GQ,1.85,10.25,Africa/Malabo,41084
Ebebiyín,Equatorial Guinea,GQ,2.15,11.3167,Africa/Malabo,36565
Santiago de Baney,Equatorial Guinea,GQ,3.7,8.9083,Africa/Malabo,29366
Añisoc,Equatorial Guinea,GQ,1.8656,10.7689,Africa/Malabo,16626
Bengonbeyene,Equatorial Guinea,GQ,1.6931,11.0342,Africa/Malabo,15644
Mbini,Equatorial Guinea,GQ,1.5833,9.6167,Africa/Malabo,14034
Aconibe,Equatorial Guinea,GQ,1.3,10.9333,Africa/Malabo,13382
Rebola,Equatorial Guinea,GQ,3.7192,8.8531,Africa/Malabo,10000
Evinayong,Equatorial Guinea,GQ,1.45,10.5667,Africa/Malabo,9155
Luba,Equatorial Guinea,GQ,3.45,8.55,Africa/Malabo,7739
Mongomo,Equatorial Guinea,GQ,1.6287,11.3168,Africa/Malabo,7251
Palé,Equatorial Guinea,GQ,-1.4043,5.6322,Africa/Malabo,5008
Djibloho,Equatorial Guinea,GQ,1.5917,10.8222,Africa/Malabo,2000
Calatrava,Equatorial Guinea,GQ,1.103,9.4094,Africa/Malabo,628
Athens,Greece,GR,37.9842,23.7281,Europe/Athens,3059764
Thessaloníki,Greece,GR,40.6403,22.9356,Europe/Athens,802572
Piraeus,Greece,GR,37.943,23.6469,Europe/Athens,448051
Irákleio,Greece,GR,35.3403,25.1344,Europe/Athens,211370
Pátra,Greece,GR,38.25,21.7333,Europe/Athens,173600
Lárisa,Greece,GR,39.6417,22.4167,Europe/Athens,146377
Peristéri,Greece,GR,38.0167,23.6833,Europe/Athens,133630
Acharnés,Greece,GR,38.0925,23.7425,Europe/Athens,100857
Kallithéa,Greece,GR,37.95,23.7,Europe/Athens,97616
Níkaia,Greece,GR,37.9667,23.6333,Europe/Athens,95798
Kalamariá,Greece,GR,40.5833,22.95,Europe/Athens,92248
Glyfáda,Greece,GR,37.88,23.7533,Europe/Athens,89597
Vólos,Greece,GR,39.3611,22.9425,Europe/Athens,85803
Ílion,Greece,GR,38.0323,23.7022,Europe/Athens,84004
Évosmos,Greece,GR,40.6689,22.9083,Europe/Athens,79221
Keratsíni,Greece,GR,37.9667,23.6167,Europe/Athens,78474
Chalándri,Greece,GR,38.0167,23.8,Europe/Athens,77102
Ilioúpoli,Greece,GR,37.9315,23.7698,Europe/Athens,76730
Néa Smýrni,Greece,GR,37.9433,23.7106,Europe/Athens,72853
Maroúsi,Greece,GR,38.05,23.8,Europe/Athens,71830
Ágios Dimítrios,Greece,GR,37.9333,23.7333,Europe/Athens,71664
Korydallós,Greece,GR,37.9769,23.6503,Europe/Athens,70710
Zográfos,Greece,GR,37.9762,23.7638,Europe/Athens,69874
Néa Ionía,Greece,GR,38.0333,23.75,Europe/Athens,69508
Véroia,Greece,GR,40.4808,22.1886,Europe/Athens,66547
Grytviken,South Georgia and South Sandwich Islands,GS,-54.2815,-36.508,Atlantic/South_Georgia,3
King Edward Point,South Georgia And South Sandwich Islands,GS,-54.2833,-36.5,Atlantic/South_Georgia,0
Guatemala City,Guatemala,GT,14.6417,-90.5133,America/Guatemala,994938
Mixco,Guatemala,GT,14.6338,-90.6146,America/Guatemala,527828
Villa Nueva,Guatemala,GT,14.5314,-90.5964,America/Guatemala,492480
San Juan Sacatepéquez,Guatemala,GT,14.7189,-90.6442,America/Guatemala,284798
San Pedro Carchá,Guatemala,GT,15.4768,-90.312,America/Guatemala,255006
Cobán,Guatemala,GT,15.4833,-90.3667,America/Guatemala,228664
Quetzaltenango,Guatemala,GT,14.8333,-91.5167,America/Guatemala,207620
Jalapa,Guatemala,GT,14.6379,-89.9904,America/Guatemala,192676
Escuintla,Guatemala,GT,14.2978,-90.7869,America/Guatemala,170280
Jutiapa,Guatemala,GT,14.2917,-89.8958,America/Guatemala,167049
Amatitlán,Guatemala,GT,14.4741,-90.6247,America/Guatemala,152296
Momostenango,Guatemala,GT,15.0444,-91.4083,America/Guatemala,139552
Huehuetenango,Guatemala,GT,15.3147,-91.4761,America/Guatemala,136639
Petapa,Guatemala,GT,14.4962,-90.5525,America/Guatemala,129124
Santa Lucía Cotzumalguapa,Guatemala,GT,14.3333,-91.0167,America/Guatemala,127683
Villa Canales,Guatemala,GT,14.4816,-90.534,America/Guatemala,124680
Coatepeque,Guatemala,GT,14.7,-91.8667,America/Guatemala,120737
Totonicapán,Guatemala,GT,14.9108,-91.3606,America/Guatemala,118960
Chimaltenango,Guatemala,GT,14.6622,-90.8208,America/Guatemala,116642
Tecpán Guatemala,Guatemala,GT,14.7667,-91.0,America/Guatemala,112864
Pochuta,Guatemala,GT,14.55,-91.0833,America/Guatemala,112139
Chiquimula,Guatemala,GT,14.7833,-89.5333,America/Guatemala,111505
Puerto Barrios,Guatemala,GT,15.73,-88.6,America/Guatemala,110846
Retalhuleu,Guatemala,GT,14.5333,-91.6833,America/Guatemala,109935
Malacatán,Guatemala,GT,14.9106,-92.0581,America/Guatemala,109318
Maina,Guam,GU,13.4692,144.7332,Pacific/Guam,122411
Hagåtña,Guam,GU,13.4745,144.7504,Pacific/Guam,1051
Bissau,Guinea-Bissau,GW,11.86,-15.5833,Africa/Bissau,492004
Farim,Guinea-Bissau,GW,12.4833,-15.2167,Africa/Bissau,46268
Contuboel,Guinea-Bissau,GW,12.3667,-14.5667,Africa/Bissau,44048
Gabú,Guinea-Bissau,GW,12.2833,-14.2167,Africa/Bissau,43556
Quinhámel,Guinea-Bissau,GW,11.8869,-15.8556,Africa/Bissau,42659
Bambadinca,Guinea-Bissau,GW,12.0333,-14.8667,Africa/Bissau,31834
Bafatá,Guinea-Bissau,GW,12.1719,-14.6575,Africa/Bissau,29556
Gamamudo,Guinea-Bissau,GW,12.2667,-14.7333,Africa/Bissau,24564
Bedanda,Guinea-Bissau,GW,11.35,-15.1167,Africa/Bissau,24293
Xitole,Guinea-Bissau,GW,11.7333,-14.8167,Africa/Bissau,16928
Galomaro,Guinea-Bissau,GW,11.9473,-14.6407,Africa/Bissau,14862
Tite,Guinea-Bissau,GW,11.7833,-15.4,Africa/Bissau,14862
Caió,Guinea-Bissau,GW,11.9278,-16.2028,Africa/Bissau,12696
Madina do Boé,Guinea-Bissau,GW,11.75,-14.3167,Africa/Bissau,12000
Bissorã,Guinea-Bissau,GW,12.2231,-15.4475,Africa/Bissau,11964
Bissorã,Guinea-Bissau,GW,12.2167,-15.45,Africa/Bissau,11964
Buba,Guinea-Bissau,GW,11.59,-14.99,Africa/Bissau,7898
Cacheu,Guinea-Bissau,GW,12.278,-16.165,Africa/Bissau,5674
Catió,Guinea-Bissau,GW,11.2833,-15.25,Africa/Bissau,5081
Bolama,Guinea-Bissau,GW,11.5776,-15.4742,Africa/Bissau,5026
Fulacunda,Guinea-Bissau,GW,11.7667,-15.1667,Africa/Bissau,1311
Georgetown,Guyana,GY,6.8058,-58.1508,America/Guyana,235017
Linden,Guyana,GY,6.0,-58.3,America/Guyana,28674
New Amsterdam,Guyana,GY,6.25,-57.5167,America/Guyana,14762
Anna Regina,Guyana,GY,7.25,-58.5167,America/Guyana,12448
Princetown,Guyana,GY,5.9049,-57.1391,America/Guyana,12000
Bartica,Guyana,GY,6.4,-58.6167,America/Guyana,8532
Lethem,Guyana,GY,3.3833,-59.8,America/Guyana,3000
Mahdia,Guyana,GY,5.2825,-59.15,America/Guyana,2563
Mabaruma,Guyana,GY,8.2,-59.7833,America/Guyana,1254
Ituni,Guyana,GY,5.5333,-58.25,America/Guyana,676
Vreed-en-Hoop,Guyana,GY,6.8,-58.1833,America/Guyana,469
Fort Wellington,Guyana,GY,6.4,-57.6,America/Guyana,118
Hong Kong,Hong Kong,HK,22.2783,114.1586,Asia/Hong_Kong,7450000
Kowloon,Hong Kong,HK,22.3167,114.1833,Asia/Hong_Kong,2108419
Sha Tin,Hong Kong,HK,22.3802,114.19,Asia/Hong_Kong,640000
Sham Shui Po,Hong Kong,HK,22.3307,114.162,Asia/Hong_Kong,433500
Kowloon City,Hong Kong,HK,22.3289,114.1892,Asia/Hong_Kong,418732
Tin Shui Wai,Hong Kong,HK,22.4603,114.003,Asia/Hong_Kong,286232
Central District,Hong Kong,HK,22.2831,114.15,Asia/Hong_Kong,236000
Tsing Yi Town,Hong Kong,HK,22.3456,114.1,Asia/Hong_Kong,200000
Lam Tin,Hong Kong,HK,22.3094,114.236,Asia/Hong_Kong,131000
San Tung Chung Hang,Hong Kong,HK,22.2787,113.9431,Asia/Hong_Kong,116022
Kennedy Town,Hong Kong,HK,22.28,114.125,Asia/Hong_Kong,54000
Kwai Chung,Hong Kong,HK,22.368,114.1287,Asia/Hong_Kong,38674
Pak Tin Pa,Hong Kong,HK,22.3364,114.167,Asia/Hong_Kong,21902
Cheung Chau,Hong Kong,HK,22.2106,114.0289,Asia/Hong_Kong,19769
Choi Hung,Hong Kong,HK,22.335,114.207,Asia/Hong_Kong,18435
Shek Tong Tsui,Hong Kong,HK,22.2871,114.136,Asia/Hong_Kong,17170
Wang Tau Hom,Hong Kong,HK,22.3408,114.187,Asia/Hong_Kong,17116
Shek Wai Kok,Hong Kong,HK,22.3753,114.1237,Asia/Hong_Kong,16605
Tung Tau Tsuen,Hong Kong,HK,22.3334,114.192,Asia/Hong_Kong,15562
Sha Kok Mei,Hong Kong,HK,22.3784,114.1941,Asia/Hong_Kong,14522
Sai Wan Ho,Hong Kong,HK,22.2877,114.136,Asia/Hong_Kong,12985
Sai Kung Tuk,Hong Kong,HK,22.3814,114.2733,Asia/Hong_Kong,11927
Wan Tau Tong,Hong Kong,HK,22.4423,114.1672,Asia/Hong_Kong,10860
Tegucigalpa,Honduras,HN,14.1058,-87.2047,America/Tegucigalpa,1199136
San Pedro Sula,Honduras,HN,15.5053,-88.0251,America/Tegucigalpa,793835
Choloma,Honduras,HN,15.6127,-87.9507,America/Tegucigalpa,227535
La Ceiba,Honduras,HN,15.7833,-86.7918,America/Tegucigalpa,215973
Ciudad Choluteca,Honduras,HN,13.3061,-87.1956,America/Tegucigalpa,152519
El Progreso,Honduras,HN,15.4009,-87.812,America/Tegucigalpa,150476
Villanueva,Honduras,HN,15.3157,-87.9932,America/Tegucigalpa,149977
Comayagua,Honduras,HN,14.4528,-87.6379,America/Tegucigalpa,144785
Juticalpa,Honduras,HN,14.6672,-86.2196,America/Tegucigalpa,124828
Puerto Cortés,Honduras,HN,15.8514,-87.9427,America/Tegucigalpa,97506
Siguatepeque,Honduras,HN,14.5978,-87.8353,America/Tegucigalpa,94480
Danlí,Honduras,HN,14.0324,-86.5683,America/Tegucigalpa,88722
Yoro,Honduras,HN,15.1379,-87.1249,America/Tegucigalpa,86665
Olanchito,Honduras,HN,15.4836,-86.5725,America/Tegucigalpa,74371
Tocoa,Honduras,HN,15.6576,-86.005,America/Tegucigalpa,72847
La Lima,Honduras,HN,15.4402,-87.9278,America/Tegucigalpa,71910
Catacamas,Honduras,HN,14.8484,-85.8936,America/Tegucigalpa,63310
Santa Rosa de Copán,Honduras,HN,14.7675,-88.7781,America/Tegucigalpa,61083
Trujillo,Honduras,HN,15.9179,-85.953,America/Tegucigalpa,60558
Tela,Honduras,HN,15.7825,-87.4514,America/Tegucigalpa,58523
Nacaome,Honduras,HN,13.5325,-87.4881,America/Tegucigalpa,57345
Intibucá,Honduras,HN,14.3121,-88.1781,America/Tegucigalpa,56017
San Manuel,Honduras,HN,15.3318,-87.9194,America/Tegucigalpa,53083
Gracias,Honduras,HN,14.5889,-88.5805,America/Tegucigalpa,47622
Puerto Lempira,Honduras,HN,15.2664,-83.7725,America/Tegucigalpa,47528
Zagreb,Croatia,HR,45.8131,15.9772,Europe/Zagreb,767131
Split,Croatia,HR,43.51,16.44,Europe/Zagreb,160577
Rijeka,Croatia,HR,45.3333,14.4333,Europe/Zagreb,107964
Osijek,Croatia,HR,45.5603,18.6703,Europe/Zagreb,96313
Zadar,Croatia,HR,44.1142,15.2275,Europe/Zagreb,70779
Sesvete,Croatia,HR,45.8271,16.1112,Europe/Zagreb,55313
Slavonski Brod,Croatia,HR,45.1553,18.0144,Europe/Zagreb,53473
Pula,Croatia,HR,44.8703,13.8456,Europe/Zagreb,52220
Karlovac,Croatia,HR,45.4931,15.5558,Europe/Zagreb,49377
Varaždin,Croatia,HR,46.3081,16.3378,Europe/Zagreb,43782
Šibenik,Croatia,HR,43.7339,15.8956,Europe/Zagreb,42599
Dubrovnik,Croatia,HR,42.6403,18.1083,Europe/Zagreb,41562
Sisak,Croatia,HR,45.4872,16.3761,Europe/Zagreb,40121
Bjelovar,Croatia,HR,45.8989,16.8422,Europe/Zagreb,36316
Vinkovci,Croatia,HR,45.2833,18.8,Europe/Zagreb,30842
Velika Gorica,Croatia,HR,45.7,16.0667,Europe/Zagreb,30036
Čakovec,Croatia,HR,46.3833,16.4333,Europe/Zagreb,27122
Zaprešić,Croatia,HR,45.85,15.8,Europe/Zagreb,24133
Solin,Croatia,HR,43.5394,16.4831,Europe/Zagreb,23926
Ðakovo,Croatia,HR,45.3,18.4,Europe/Zagreb,23577
Požega,Croatia,HR,45.3314,17.6744,Europe/Zagreb,22294
Koprivnica,Croatia,HR,46.15,16.8167,Europe/Zagreb,22262
Vukovar,Croatia,HR,45.35,19.0033,Europe/Zagreb,22255
Križevci,Croatia,HR,46.0333,16.5333,Europe/Zagreb,18949
Samobor,Croatia,HR,45.8011,15.711,Europe/Zagreb,16911
Port-au-Prince,Haiti,HT,18.5469,-72.3403,America/Port-au-Prince,2914190
Carrefour,Haiti,HT,18.5333,-72.4,America/Port-au-Prince,511345
Pétion-Ville,Haiti,HT,18.5098,-72.2856,America/Port-au-Prince,376834
Gonaïves,Haiti,HT,19.4456,-72.6883,America/Port-au-Prince,356324
Delmas,Haiti,HT,18.55,-72.3,America/Port-au-Prince,284079
Saint-Marc,Haiti,HT,19.1167,-72.7,America/Port-au-Prince,266642
Croix-des-Bouquets,Haiti,HT,18.5761,-72.2269,America/Port-au-Prince,231077
Jacmel,Haiti,HT,18.2342,-72.5347,America/Port-au-Prince,221965
Cap-Haïtien,Haiti,HT,19.75,-72.2,America/Port-au-Prince,190289
Dessalines,Haiti,HT,19.2611,-72.5192,America/Port-au-Prince,181903
Petite Rivière de l’Artibonite,Haiti,HT,19.1333,-72.4833,America/Port-au-Prince,170740
Gros Morne,Haiti,HT,19.6708,-72.6781,America/Port-au-Prince,155692
Les Cayes,Haiti,HT,18.2,-73.75,America/Port-au-Prince,151696
Jean-Rabel,Haiti,HT,19.85,-73.2,America/Port-au-Prince,148416
Verrettes,Haiti,HT,19.05,-72.4667,America/Port-au-Prince,144812
Jérémie,Haiti,HT,18.6472,-74.1139,America/Port-au-Prince,134317
Arcahaie,Haiti,HT,18.7718,-72.5123,America/Port-au-Prince,130306
Tabarre,Haiti,HT,18.5833,-72.2667,America/Port-au-Prince,130283
Port-de-Paix,Haiti,HT,19.95,-72.8333,America/Port-au-Prince,121220
Hinche,Haiti,HT,19.15,-72.0167,America/Port-au-Prince,120867
Ouanaminthe,Haiti,HT,19.55,-71.7333,America/Port-au-Prince,116086
Aquin,Haiti,HT,18.2833,-73.4,America/Port-au-Prince,104216
Mirebalais,Haiti,HT,18.8333,-72.1053,America/Port-au-Prince,97755
Saint-Michel de l’Atalaye,Haiti,HT,19.3708,-72.3347,America/Port-au-Prince,95216
Léogâne,Haiti,HT,18.5108,-72.6339,America/Port-au-Prince,90000
Budapest,Hungary,HU,47.4983,19.0408,Europe/Budapest,3067751
Debrecen,Hungary,HU,47.53,21.6392,Europe/Budapest,328642
Miskolc,Hungary,HU,48.1,20.7833,Europe/Budapest,294144
Szeged,Hungary,HU,46.25,20.1667,Europe/Budapest,239025
Szombathely,Hungary,HU,47.2319,16.62,Europe/Budapest,147920
Pécs,Hungary,HU,46.0708,18.2331,Europe/Budapest,139412
Győr,Hungary,HU,47.6842,17.6344,Europe/Budapest,129373
Nyíregyháza,Hungary,HU,47.95,21.7167,Europe/Budapest,114873
Kecskemét,Hungary,HU,46.9075,19.6917,Europe/Budapest,108651
Székesfehérvár,Hungary,HU,47.191,18.4108,Europe/Budapest,95241
Érd,Hungary,HU,47.3783,18.9219,Europe/Budapest,71495
Szolnok,Hungary,HU,47.1747,20.1764,Europe/Budapest,65564
Tatabánya,Hungary,HU,47.5862,18.3949,Europe/Budapest,64785
Sopron,Hungary,HU,47.6833,16.5833,Europe/Budapest,60820
Kaposvár,Hungary,HU,46.3667,17.7833,Europe/Budapest,58459
Veszprém,Hungary,HU,47.1,17.9167,Europe/Budapest,55118
Zalaegerszeg,Hungary,HU,46.8392,16.8511,Europe/Budapest,53960
Békéscsaba,Hungary,HU,46.6833,21.0833,Europe/Budapest,53944
Eger,Hungary,HU,47.8989,20.3747,Europe/Budapest,48686
Dunakeszi,Hungary,HU,47.6297,19.1381,Europe/Budapest,42630
Nagykanizsa,Hungary,HU,46.4558,16.9975,Europe/Budapest,42042
Hódmezővásárhely,Hungary,HU,46.4303,20.3189,Europe/Budapest,41669
Dunaújváros,Hungary,HU,46.9833,18.9167,Europe/Budapest,41193
Szigetszentmiklós,Hungary,HU,47.3453,19.0483,Europe/Budapest,40132
Cegléd,Hungary,HU,47.1716,19.7978,Europe/Budapest,36125
Jakarta,Indonesia,ID,-6.1753,106.8269,Asia/Jakarta,33756000
Bandung,Indonesia,ID,-6.9218,107.6071,Asia/Jakarta,7203000
Surabaya,Indonesia,ID,-7.2463,112.7378,Asia/Jakarta,6556000
Medan,Indonesia,ID,3.5894,98.6739,Asia/Jakarta,3632000
Lembok,Indonesia,ID,-8.6312,116.3176,Asia/Makassar,3352988
Bekasi,Indonesia,ID,-6.2333,107.0,Asia/Jakarta,2381053
Tangerang,Indonesia,ID,-6.1703,106.6403,Asia/Jakarta,2237006
Semarang,Indonesia,ID,-6.99,110.4225,Asia/Jakarta,1621384
Palembang,Indonesia,ID,-2.9833,104.7644,Asia/Jakarta,1535952
Makassar,Indonesia,ID,-5.1331,119.4136,Asia/Makassar,1338663
Denpasar,Indonesia,ID,-8.6717,115.2339,Asia/Makassar,1326000
Bagam,Indonesia,ID,1.0299,104.095,Asia/Jakarta,1296960
Pekanbaru,Indonesia,ID,0.5333,101.45,Asia/Jakarta,1285353
