[{"name":"Afghanistan","iso2":"AF","iso3":"AFG","cities":[{"name":"Kabul","country":"Afghanistan","latitude":34.5328,"longitude":69.1658},{"name":"Kandahar","country":"Afghanistan","latitude":31.6207,"longitude":65.7159},{"name":"Mazar-e Sharif","country":"Afghanistan","latitude":36.7,"longitude":67.1167},{"name":"Herat","country":"Afghanistan","latitude":34.3419,"longitude":62.2031},{"name":"Kunduz","country":"Afghanistan","latitude":36.7289,"longitude":68.8569},{"name":"Jalalabad","country":"Afghanistan","latitude":34.4303,"longitude":70.4528},{"name":"Taluqan","country":"Afghanistan","latitude":36.7358,"longitude":69.5347},{"name":"Lashkar Gah","country":"Afghanistan","latitude":31.5938,"longitude":64.3716},{"name":"Shibirghan","country":"Afghanistan","latitude":36.665,"longitude":65.752},{"name":"Charikar","country":"Afghanistan","latitude":35.0167,"longitude":69.1667},{"name":"Khost","country":"Afghanistan","latitude":33.3333,"longitude":69.9167},{"name":"Ghazni","country":"Afghanistan","latitude":33.5492,"longitude":68.4233},{"name":"Pul-e Khumri","country":"Afghanistan","latitude":35.95,"longitude":68.7},{"name":"Spin Boldak","country":"Afghanistan","latitude":31.0081,"longitude":66.3981},{"name":"Maimanah","country":"Afghanistan","latitude":35.9333,"longitude":64.75},{"name":"Baghlan","country":"Afghanistan","latitude":36.1328,"longitude":68.7},{"name":"Bazar-e Yakawlang","country":"Afghanistan","latitude":34.7333,"longitude":66.9667},{"name":"Tarin Kot","country":"Afghanistan","latitude":32.6242,"longitude":65.8767},{"name":"Gardez","country":"Afghanistan","latitude":33.5931,"longitude":69.2297},{"name":"Mama Khel","country":"Afghanistan","latitude":34.25,"longitude":70.01},{"name":"Faizabad","country":"Afghanistan","latitude":37.1166,"longitude":70.58},{"name":"Ghoriyan","country":"Afghanistan","latitude":34.3448,"longitude":61.4932},{"name":"Farah","country":"Afghanistan","latitude":32.3436,"longitude":62.1194},{"name":"Sar-e Pul","country":"Afghanistan","latitude":36.2214,"longitude":65.9278},{"name":"Qalat","country":"Afghanistan","latitude":32.1061,"longitude":66.9069},{"name":"Paghman","country":"Afghanistan","latitude":34.5833,"longitude":68.95},{"name":"Qarqin","country":"Afghanistan","latitude":37.4128,"longitude":66.0472},{"name":"Andkhoy","country":"Afghanistan","latitude":36.95,"longitude":65.1167},{"name":"Aibak","country":"Afghanistan","latitude":36.2534,"longitude":68.0394},{"name":"Gudarah","country":"Afghanistan","latitude":34.8172,"longitude":69.0878}]},{"name":"Albania","iso2":"AL","iso3":"ALB","cities":[{"name":"Tirana","country":"Albania","latitude":41.3283,"longitude":19.8181},{"name":"Durres","country":"Albania","latitude":41.3163,"longitude":19.4474},{"name":"Elbasan","country":"Albania","latitude":41.1131,"longitude":20.0818},{"name":"Vlore","country":"Albania","latitude":40.45,"longitude":19.4833},{"name":"Kamez","country":"Albania","latitude":41.3833,"longitude":19.7667},{"name":"Shkoder","country":"Albania","latitude":42.0681,"longitude":19.5121},{"name":"Fier","country":"Albania","latitude":40.7167,"longitude":19.55},{"name":"Korce","country":"Albania","latitude":40.6167,"longitude":20.7667},{"name":"Berat","country":"Albania","latitude":40.7049,"longitude":19.9497},{"name":"Sarande","country":"Albania","latitude":39.875,"longitude":20.01},{"name":"Lushnje","country":"Albania","latitude":40.9333,"longitude":19.7},{"name":"Pogradec","country":"Albania","latitude":40.9,"longitude":20.65},{"name":"Kavaje","country":"Albania","latitude":41.1833,"longitude":19.55},{"name":"Gjirokaster","country":"Albania","latitude":40.0758,"longitude":20.1389},{"name":"Fushe-Kruje","country":"Albania","latitude":41.4833,"longitude":19.7167},{"name":"Lac","country":"Albania","latitude":41.6353,"longitude":19.7131},{"name":"Sukth","country":"Albania","latitude":41.3833,"longitude":19.5333},{"name":"Bucimas","country":"Albania","latitude":40.8914,"longitude":20.6814},{"name":"Kukes","country":"Albania","latitude":42.0758,"longitude":20.4231},{"name":"Lezhe","country":"Albania","latitude":41.7805,"longitude":19.6434},{"name":"Patos","country":"Albania","latitude":40.6841,"longitude":19.6194},{"name":"Shijak","country":"Albania","latitude":41.3456,"longitude":19.5672},{"name":"Peshkopi","country":"Albania","latitude":41.6837,"longitude":20.4119},{"name":"Librazhd-Qender","country":"Albania","latitude":41.1969,"longitude":20.3356},{"name":"Kucove","country":"Albania","latitude":40.8039,"longitude":19.9144},{"name":"Xhafzotaj","country":"Albania","latitude":41.35,"longitude":19.55},{"name":"Kruje","country":"Albania","latitude":41.5108,"longitude":19.7925},{"name":"Vore","country":"Albania","latitude":41.3939,"longitude":19.6544},{"name":"Burrel","country":"Albania","latitude":41.6,"longitude":20.0},{"name":"Berxull","country":"Albania","latitude":41.3833,"longitude":19.7}]},{"name":"Algeria","iso2":"DZ","iso3":"DZA","cities":[{"name":"Algiers","country":"Algeria","latitude":36.7764,"longitude":3.0586},{"name":"Oran","country":"Algeria","latitude":35.6969,"longitude":-0.6331},{"name":"Blida","country":"Algeria","latitude":36.4722,"longitude":2.8333},{"name":"Constantine","country":"Algeria","latitude":36.365,"longitude":6.6147},{"name":"Batna","country":"Algeria","latitude":35.55,"longitude":6.1667},{"name":"Setif","country":"Algeria","latitude":36.19,"longitude":5.41},{"name":"El Khroub","country":"Algeria","latitude":36.2633,"longitude":6.6936},{"name":"Djelfa","country":"Algeria","latitude":34.6667,"longitude":3.25},{"name":"Annaba","country":"Algeria","latitude":36.9,"longitude":7.7667},{"name":"Sidi Aissa","country":"Algeria","latitude":35.8864,"longitude":3.7756},{"name":"Sidi Bel Abbes","country":"Algeria","latitude":35.2,"longitude":-0.6333},{"name":"Biskra","country":"Algeria","latitude":34.85,"longitude":5.7333},{"name":"Tebessa","country":"Algeria","latitude":35.4,"longitude":8.1167},{"name":"Ouargla","country":"Algeria","latitude":31.95,"longitude":5.3167},{"name":"Tiaret","country":"Algeria","latitude":35.3667,"longitude":1.3167},{"name":"Bejaia","country":"Algeria","latitude":36.7511,"longitude":5.0642},{"name":"Tlemcen","country":"Algeria","latitude":34.8828,"longitude":-1.3167},{"name":"Bir el Djir","country":"Algeria","latitude":35.7367,"longitude":-0.5542},{"name":"Bordj Bou Arreridj","country":"Algeria","latitude":36.0667,"longitude":4.7667},{"name":"Bechar","country":"Algeria","latitude":31.6164,"longitude":-2.2183},{"name":"Skikda","country":"Algeria","latitude":36.8667,"longitude":6.9},{"name":"Tizi Ouzou","country":"Algeria","latitude":36.7169,"longitude":4.0497},{"name":"Souk Ahras","country":"Algeria","latitude":36.2864,"longitude":7.9511},{"name":"Chlef","country":"Algeria","latitude":36.1647,"longitude":1.3317},{"name":"El Eulma","country":"Algeria","latitude":36.1528,"longitude":5.69},{"name":"Bordj el Kiffan","country":"Algeria","latitude":36.7472,"longitude":3.1908},{"name":"Mostaganem","country":"Algeria","latitude":35.9333,"longitude":0.0903},{"name":"Touggourt","country":"Algeria","latitude":33.1,"longitude":6.0667},{"name":"Medea","country":"Algeria","latitude":36.2675,"longitude":2.75},{"name":"El Oued","country":"Algeria","latitude":33.3683,"longitude":6.8675}]},{"name":"American Samoa","iso2":"AS","iso3":"ASM","cities":[{"name":"Pago Pago","country":"American Samoa","latitude":-14.274,"longitude":-170.7046}]},{"name":"Andorra","iso2":"AD","iso3":"AND","cities":[{"name":"Andorra la Vella","country":"Andorra","latitude":42.5,"longitude":1.5},{"name":"Sant Pere","country":"Andorra","latitude":42.5833,"longitude":1.65},{"name":"Escaldes-Engordany","country":"Andorra","latitude":42.5089,"longitude":1.5408},{"name":"Encamp","country":"Andorra","latitude":42.5361,"longitude":1.5828},{"name":"La Massana","country":"Andorra","latitude":42.5442,"longitude":1.5164},{"name":"Sant Julia de Loria","country":"Andorra","latitude":42.47,"longitude":1.49},{"name":"Canillo","country":"Andorra","latitude":42.5664,"longitude":1.6009},{"name":"Ordino","country":"Andorra","latitude":42.5562,"longitude":1.5332}]},{"name":"Angola","iso2":"AO","iso3":"AGO","cities":[{"name":"Luanda","country":"Angola","latitude":-8.8383,"longitude":13.2344},{"name":"Lubango","country":"Angola","latitude":-14.9167,"longitude":13.5},{"name":"Huambo","country":"Angola","latitude":-12.7667,"longitude":15.7333},{"name":"Cabinda","country":"Angola","latitude":-5.5667,"longitude":12.2},{"name":"Malanje","country":"Angola","latitude":-9.5469,"longitude":16.3387},{"name":"Uige","country":"Angola","latitude":-7.6087,"longitude":15.0613},{"name":"Benguela","country":"Angola","latitude":-12.58,"longitude":13.4078},{"name":"Cuito","country":"Angola","latitude":-12.3833,"longitude":16.9333},{"name":"Lobito","country":"Angola","latitude":-12.35,"longitude":13.5464},{"name":"Saurimo","country":"Angola","latitude":-9.6589,"longitude":20.3934},{"name":"Menongue","country":"Angola","latitude":-14.6556,"longitude":17.6842},{"name":"Belas","country":"Angola","latitude":-9.0583,"longitude":13.1539},{"name":"Luena","country":"Angola","latitude":-11.783,"longitude":19.913},{"name":"Vila Teixeira da Silva","country":"Angola","latitude":-12.1958,"longitude":15.8556},{"name":"Talatona","country":"Angola","latitude":-8.9167,"longitude":13.1833},{"name":"Sumbe","country":"Angola","latitude":-11.2052,"longitude":13.8417},{"name":"Caala","country":"Angola","latitude":-12.85,"longitude":15.55},{"name":"Gabela","country":"Angola","latitude":-10.85,"longitude":14.3667},{"name":"Andulo","country":"Angola","latitude":-11.4926,"longitude":16.7035},{"name":"Mocamedes","country":"Angola","latitude":-15.1953,"longitude":12.1508},{"name":"Uacu Cungo","country":"Angola","latitude":-11.3583,"longitude":15.1194},{"name":"Soio","country":"Angola","latitude":-6.1333,"longitude":12.3667},{"name":"Tchitato","country":"Angola","latitude":-7.345,"longitude":20.8198},{"name":"Mbanza Kongo","country":"Angola","latitude":-6.27,"longitude":14.24},{"name":"Dundo","country":"Angola","latitude":-7.3801,"longitude":20.8351},{"name":"Caluquembe","country":"Angola","latitude":-13.7833,"longitude":14.6833},{"name":"Caconda","country":"Angola","latitude":-13.7393,"longitude":15.0607},{"name":"Quibala","country":"Angola","latitude":-10.7336,"longitude":14.98},{"name":"Ndalatando","country":"Angola","latitude":-9.3,"longitude":14.9167},{"name":"Luau","country":"Angola","latitude":-10.7,"longitude":22.2333}]},{"name":"Anguilla","iso2":"AI","iso3":"AIA","cities":[{"name":"The Valley","country":"Anguilla","latitude":18.2208,"longitude":-63.0517}]},{"name":"Antigua and Barbuda","iso2":"AG","iso3":"ATG","cities":[{"name":"Saint John's","country":"Antigua and Barbuda","latitude":17.1211,"longitude":-61.8447}]},{"name":"Argentina","iso2":"AR","iso3":"ARG","cities":[{"name":"Buenos Aires","country":"Argentina","latitude":-34.5997,"longitude":-58.3819},{"name":"Cordoba","country":"Argentina","latitude":-31.4167,"longitude":-64.1833},{"name":"Rosario","country":"Argentina","latitude":-32.9575,"longitude":-60.6394},{"name":"La Plata","country":"Argentina","latitude":-34.9333,"longitude":-57.95},{"name":"Salta","country":"Argentina","latitude":-24.7883,"longitude":-65.4106},{"name":"San Miguel de Tucuman","country":"Argentina","latitude":-26.8167,"longitude":-65.2167},{"name":"Mar del Plata","country":"Argentina","latitude":-38.0,"longitude":-57.55},{"name":"San Juan","country":"Argentina","latitude":-31.5375,"longitude":-68.5364},{"name":"Lanus","country":"Argentina","latitude":-34.7,"longitude":-58.4},{"name":"Corrientes","country":"Argentina","latitude":-27.4833,"longitude":-58.8167},{"name":"Santa Fe","country":"Argentina","latitude":-31.6333,"longitude":-60.7},{"name":"Avellaneda","country":"Argentina","latitude":-34.6625,"longitude":-58.3678},{"name":"San Salvador de Jujuy","country":"Argentina","latitude":-24.1856,"longitude":-65.2994},{"name":"Santiago del Estero","country":"Argentina","latitude":-27.7844,"longitude":-64.2669},{"name":"Resistencia","country":"Argentina","latitude":-27.4514,"longitude":-58.9867},{"name":"Bahia Blanca","country":"Argentina","latitude":-38.7182,"longitude":-62.2673},{"name":"Neuquen","country":"Argentina","latitude":-38.9518,"longitude":-68.0592},{"name":"Posadas","country":"Argentina","latitude":-27.3667,"longitude":-55.8969},{"name":"Parana","country":"Argentina","latitude":-31.7331,"longitude":-60.5297},{"name":"Formosa","country":"Argentina","latitude":-26.1847,"longitude":-58.1758},{"name":"Quilmes","country":"Argentina","latitude":-34.7167,"longitude":-58.2667},{"name":"Merlo","country":"Argentina","latitude":-34.6653,"longitude":-58.7275},{"name":"Gonzalez Catan","country":"Argentina","latitude":-34.7708,"longitude":-58.6464},{"name":"Jose C. Paz","country":"Argentina","latitude":-34.5167,"longitude":-58.7667},{"name":"San Rafael","country":"Argentina","latitude":-34.6175,"longitude":-68.3356},{"name":"La Rioja","country":"Argentina","latitude":-29.4131,"longitude":-66.8558},{"name":"San Luis","country":"Argentina","latitude":-33.2994,"longitude":-66.3392},{"name":"Comodoro Rivadavia","country":"Argentina","latitude":-45.8667,"longitude":-67.5},{"name":"Rio Cuarto","country":"Argentina","latitude":-33.123,"longitude":-64.3478},{"name":"San Lorenzo","country":"Argentina","latitude":-32.75,"longitude":-60.7333}]},{"name":"Armenia","iso2":"AM","iso3":"ARM","cities":[{"name":"Yerevan","country":"Armenia","latitude":40.1814,"longitude":44.5144},{"name":"Gyumri","country":"Armenia","latitude":40.7833,"longitude":43.8333},{"name":"Vanadzor","country":"Armenia","latitude":40.8128,"longitude":44.4883},{"name":"Hrazdan","country":"Armenia","latitude":40.5,"longitude":44.7667},{"name":"Ejmiatsin","country":"Armenia","latitude":40.1728,"longitude":44.2925},{"name":"Abovyan","country":"Armenia","latitude":40.2739,"longitude":44.6256},{"name":"Armavir","country":"Armenia","latitude":40.1544,"longitude":44.0381},{"name":"Kapan","country":"Armenia","latitude":39.2011,"longitude":46.415},{"name":"Ashtarak","country":"Armenia","latitude":40.3,"longitude":44.4},{"name":"Masis","country":"Armenia","latitude":40.067,"longitude":44.438},{"name":"Artashat","country":"Armenia","latitude":39.9539,"longitude":44.5506},{"name":"Charentsavan","country":"Armenia","latitude":40.4097,"longitude":44.6431},{"name":"Sevan","country":"Armenia","latitude":40.555,"longitude":44.9536},{"name":"Ijevan","country":"Armenia","latitude":40.8756,"longitude":45.1492},{"name":"Gavarr","country":"Armenia","latitude":40.3667,"longitude":45.1333},{"name":"Artik","country":"Armenia","latitude":40.6192,"longitude":43.9721},{"name":"Goris","country":"Armenia","latitude":39.5111,"longitude":46.3417},{"name":"Dilijan","country":"Armenia","latitude":40.7408,"longitude":44.8631},{"name":"Sisian","country":"Armenia","latitude":39.5208,"longitude":46.0322},{"name":"Vedi","country":"Armenia","latitude":39.91,"longitude":44.73},{"name":"Stepanavan","country":"Armenia","latitude":41.0075,"longitude":44.3867},{"name":"Alaverdi","country":"Armenia","latitude":41.095,"longitude":44.6558},{"name":"Martuni","country":"Armenia","latitude":40.14,"longitude":45.3064},{"name":"Spitak","country":"Armenia","latitude":40.8372,"longitude":44.2675},{"name":"Vardenis","country":"Armenia","latitude":40.18,"longitude":45.72},{"name":"Yeghvard","country":"Armenia","latitude":40.3167,"longitude":44.4833},{"name":"Vardenik","country":"Armenia","latitude":40.135,"longitude":45.4364},{"name":"Berd","country":"Armenia","latitude":40.8808,"longitude":45.3917},{"name":"Akhuryan","country":"Armenia","latitude":40.781,"longitude":43.9001},{"name":"Byureghavan","country":"Armenia","latitude":40.3147,"longitude":44.5936}]},{"name":"Aruba","iso2":"AW","iso3":"ABW","cities":[{"name":"Oranjestad","country":"Aruba","latitude":12.5186,"longitude":-70.0358},{"name":"Tanki Leendert","country":"Aruba","latitude":12.5418,"longitude":-70.022}]},{"name":"Australia","iso2":"AU","iso3":"AUS","cities":[{"name":"Sydney","country":"Australia","latitude":-33.8678,"longitude":151.21},{"name":"Melbourne","country":"Australia","latitude":-37.8142,"longitude":144.9631},{"name":"Brisbane","country":"Australia","latitude":-27.4678,"longitude":153.0278},{"name":"Perth","country":"Australia","latitude":-31.9558,"longitude":115.8597},{"name":"Adelaide","country":"Australia","latitude":-34.9275,"longitude":138.6},{"name":"Gold Coast","country":"Australia","latitude":-28.0167,"longitude":153.4},{"name":"Canberra","country":"Australia","latitude":-35.2931,"longitude":149.1269},{"name":"Central Coast","country":"Australia","latitude":-33.2992,"longitude":151.1922},{"name":"Wollongong","country":"Australia","latitude":-34.4331,"longitude":150.8831},{"name":"Ipswich","country":"Australia","latitude":-27.6167,"longitude":152.7667},{"name":"Hobart","country":"Australia","latitude":-42.8833,"longitude":147.3167},{"name":"Geelong","country":"Australia","latitude":-38.15,"longitude":144.35},{"name":"Townsville","country":"Australia","latitude":-19.2622,"longitude":146.8158},{"name":"Newcastle","country":"Australia","latitude":-32.9167,"longitude":151.75},{"name":"Cairns","country":"Australia","latitude":-16.9256,"longitude":145.7753},{"name":"Darwin","country":"Australia","latitude":-12.4381,"longitude":130.8411},{"name":"Ballarat","country":"Australia","latitude":-37.5608,"longitude":143.8475},{"name":"Toowoomba","country":"Australia","latitude":-27.55,"longitude":151.95},{"name":"Mandurah","country":"Australia","latitude":-32.5289,"longitude":115.7231},{"name":"Bendigo","country":"Australia","latitude":-36.75,"longitude":144.2667},{"name":"Maitland","country":"Australia","latitude":-32.7317,"longitude":151.5511},{"name":"Launceston","country":"Australia","latitude":-41.4444,"longitude":147.1378},{"name":"Mackay","country":"Australia","latitude":-21.1411,"longitude":149.1861},{"name":"Melton","country":"Australia","latitude":-37.6833,"longitude":144.5833},{"name":"Bunbury","country":"Australia","latitude":-33.3272,"longitude":115.6369},{"name":"Bundaberg","country":"Australia","latitude":-24.85,"longitude":152.35},{"name":"Wagga Wagga","country":"Australia","latitude":-35.1194,"longitude":147.3667},{"name":"Maroochydore","country":"Australia","latitude":-26.65,"longitude":153.1},{"name":"Rockhampton","country":"Australia","latitude":-23.379,"longitude":150.5109},{"name":"Buderim","country":"Australia","latitude":-26.685,"longitude":153.053}]},{"name":"Austria","iso2":"AT","iso3":"AUT","cities":[{"name":"Vienna","country":"Austria","latitude":48.2083,"longitude":16.3725},{"name":"Graz","country":"Austria","latitude":47.0708,"longitude":15.4386},{"name":"Linz","country":"Austria","latitude":48.3058,"longitude":14.2864},{"name":"Salzburg","country":"Austria","latitude":47.8,"longitude":13.045},{"name":"Innsbruck","country":"Austria","latitude":47.2683,"longitude":11.3933},{"name":"Klagenfurt","country":"Austria","latitude":46.6167,"longitude":14.3},{"name":"Wels","country":"Austria","latitude":48.15,"longitude":14.0167},{"name":"Villach","country":"Austria","latitude":46.6167,"longitude":13.8333},{"name":"Sankt Polten","country":"Austria","latitude":48.2,"longitude":15.6167},{"name":"Dornbirn","country":"Austria","latitude":47.4167,"longitude":9.75},{"name":"Wiener Neustadt","country":"Austria","latitude":47.8167,"longitude":16.25},{"name":"Steyr","country":"Austria","latitude":48.05,"longitude":14.4167},{"name":"Feldkirch","country":"Austria","latitude":47.2381,"longitude":9.5983},{"name":"Bregenz","country":"Austria","latitude":47.505,"longitude":9.7492},{"name":"Leonding","country":"Austria","latitude":48.2792,"longitude":14.2528},{"name":"Klosterneuburg","country":"Austria","latitude":48.3042,"longitude":16.3167},{"name":"Baden","country":"Austria","latitude":48.0075,"longitude":16.2344},{"name":"Krems an der Donau","country":"Austria","latitude":48.4167,"longitude":15.6167},{"name":"Wolfsberg","country":"Austria","latitude":46.8419,"longitude":14.8408},{"name":"Leoben","country":"Austria","latitude":47.3817,"longitude":15.0972},{"name":"Lustenau","country":"Austria","latitude":47.4271,"longitude":9.6711},{"name":"Traun","country":"Austria","latitude":48.2217,"longitude":14.2397},{"name":"Amstetten","country":"Austria","latitude":48.1167,"longitude":14.8667},{"name":"Kapfenberg","country":"Austria","latitude":47.4394,"longitude":15.2894},{"name":"Hallein","country":"Austria","latitude":47.6667,"longitude":13.0833},{"name":"Modling","country":"Austria","latitude":48.0856,"longitude":16.2831},{"name":"Kufstein","country":"Austria","latitude":47.5833,"longitude":12.1667},{"name":"Traiskirchen","country":"Austria","latitude":48.0189,"longitude":16.2922},{"name":"Ansfelden","country":"Austria","latitude":48.2083,"longitude":14.2889},{"name":"Schwechat","country":"Austria","latitude":48.1397,"longitude":16.4778}]},{"name":"Azerbaijan","iso2":"AZ","iso3":"AZE","cities":[{"name":"Baku","country":"Azerbaijan","latitude":40.3667,"longitude":49.8352},{"name":"Sumqayit","country":"Azerbaijan","latitude":40.5961,"longitude":49.67},{"name":"Ganca","country":"Azerbaijan","latitude":40.6828,"longitude":46.3606},{"name":"Mingacevir","country":"Azerbaijan","latitude":40.764,"longitude":47.0595},{"name":"Xirdalan","country":"Azerbaijan","latitude":40.4486,"longitude":49.7564},{"name":"Kesla","country":"Azerbaijan","latitude":40.3978,"longitude":49.8986},{"name":"Naxcivan","country":"Azerbaijan","latitude":39.2089,"longitude":45.4122},{"name":"Satrovka","country":"Azerbaijan","latitude":39.9319,"longitude":48.9203},{"name":"Qaracuxur","country":"Azerbaijan","latitude":40.3969,"longitude":49.9733},{"name":"Bakixanov","country":"Azerbaijan","latitude":40.4217,"longitude":49.9644},{"name":"Saki","country":"Azerbaijan","latitude":41.1919,"longitude":47.1706},{"name":"Yevlax","country":"Azerbaijan","latitude":40.6172,"longitude":47.15},{"name":"M.A. Rasulzada","country":"Azerbaijan","latitude":40.4344,"longitude":49.8336},{"name":"Lankaran","country":"Azerbaijan","latitude":38.7536,"longitude":48.8511},{"name":"Xankandi","country":"Azerbaijan","latitude":39.8153,"longitude":46.7519},{"name":"Bilacari","country":"Azerbaijan","latitude":40.4444,"longitude":49.8057},{"name":"Agcabadi","country":"Azerbaijan","latitude":40.0489,"longitude":47.4502},{"name":"Samkir","country":"Azerbaijan","latitude":40.8297,"longitude":46.0189},{"name":"Xacmaz","country":"Azerbaijan","latitude":41.4681,"longitude":48.8028},{"name":"Samaxi","country":"Azerbaijan","latitude":40.6339,"longitude":48.6392},{"name":"Barda","country":"Azerbaijan","latitude":40.3831,"longitude":47.1186},{"name":"Binaqadi","country":"Azerbaijan","latitude":40.4758,"longitude":49.8222},{"name":"Goycay","country":"Azerbaijan","latitude":40.6553,"longitude":47.7389},{"name":"Lokbatan","country":"Azerbaijan","latitude":40.3272,"longitude":49.73},{"name":"Mardakan","country":"Azerbaijan","latitude":40.4918,"longitude":50.1429},{"name":"Imisli","country":"Azerbaijan","latitude":39.8697,"longitude":48.06},{"name":"Zaqatala","country":"Azerbaijan","latitude":41.6336,"longitude":46.6433},{"name":"Sabirabad","country":"Azerbaijan","latitude":40.0053,"longitude":48.4719},{"name":"Salyan","country":"Azerbaijan","latitude":39.5961,"longitude":48.9847},{"name":"Amircan","country":"Azerbaijan","latitude":40.4236,"longitude":49.9886}]},{"name":"Bahamas, The","iso2":"BS","iso3":"BHS","cities":[{"name":"Nassau","country":"Bahamas, The","latitude":25.0781,"longitude":-77.3386},{"name":"Freeport City","country":"Bahamas, The","latitude":26.52,"longitude":-78.66},{"name":"West End","country":"Bahamas, The","latitude":26.6867,"longitude":-78.975},{"name":"Cooper's Town","country":"Bahamas, The","latitude":26.8686,"longitude":-77.5081}]},{"name":"Bahrain","iso2":"BH","iso3":"BHR","cities":[{"name":"Manama","country":"Bahrain","latitude":26.2167,"longitude":50.5833},{"name":"Al Muharraq","country":"Bahrain","latitude":26.25,"longitude":50.6167},{"name":"Madinat Hamad","country":"Bahrain","latitude":26.1128,"longitude":50.5139},{"name":"Sitrah","country":"Bahrain","latitude":26.1547,"longitude":50.6206},{"name":"Jidd Hafs","country":"Bahrain","latitude":26.2242,"longitude":50.5394},{"name":"Madinat `Isa","country":"Bahrain","latitude":26.1736,"longitude":50.5478},{"name":"Ad Diraz","country":"Bahrain","latitude":26.2186,"longitude":50.4756},{"name":"Al Hamalah","country":"Bahrain","latitude":26.1497,"longitude":50.4653},{"name":"Al Malikiyah","country":"Bahrain","latitude":26.1008,"longitude":50.4878},{"name":"Karranah","country":"Bahrain","latitude":26.2306,"longitude":50.5108}]},{"name":"Bangladesh","iso2":"BD","iso3":"BGD","cities":[{"name":"Dhaka","country":"Bangladesh","latitude":23.7289,"longitude":90.3944},{"name":"Chattogram","country":"Bangladesh","latitude":22.335,"longitude":91.8325},{"name":"Gazipura","country":"Bangladesh","latitude":23.9889,"longitude":90.375},{"name":"Narayanganj","country":"Bangladesh","latitude":23.6167,"longitude":90.5},{"name":"Khulna","country":"Bangladesh","latitude":22.8167,"longitude":89.55},{"name":"Sylhet","country":"Bangladesh","latitude":24.9,"longitude":91.8667},{"name":"Rangapukur","country":"Bangladesh","latitude":25.5206,"longitude":89.2147},{"name":"Comilla","country":"Bangladesh","latitude":23.45,"longitude":91.2},{"name":"Rajshahi","country":"Bangladesh","latitude":24.3667,"longitude":88.6},{"name":"Chauddagram","country":"Bangladesh","latitude":23.22,"longitude":91.3},{"name":"Tungi","country":"Bangladesh","latitude":23.8833,"longitude":90.4},{"name":"Barura","country":"Bangladesh","latitude":23.36,"longitude":91.05},{"name":"Sirajganj","country":"Bangladesh","latitude":24.45,"longitude":89.7167},{"name":"Bogra","country":"Bangladesh","latitude":24.85,"longitude":89.3667},{"name":"Mymensingh","country":"Bangladesh","latitude":24.75,"longitude":90.4167},{"name":"Barishal","country":"Bangladesh","latitude":22.7,"longitude":90.3667},{"name":"Savar","country":"Bangladesh","latitude":23.8482,"longitude":90.2577},{"name":"Sherpur","country":"Bangladesh","latitude":24.665,"longitude":89.419},{"name":"Companiganj","country":"Bangladesh","latitude":22.875,"longitude":91.2833},{"name":"Rangpur","country":"Bangladesh","latitude":25.75,"longitude":89.2444},{"name":"Sonagazi","country":"Bangladesh","latitude":22.8492,"longitude":91.3928},{"name":"Brahmanbaria","country":"Bangladesh","latitude":23.9723,"longitude":91.1099},{"name":"Sripur","country":"Bangladesh","latitude":24.2,"longitude":90.4667},{"name":"Siddhirganj","country":"Bangladesh","latitude":23.6833,"longitude":90.5167},{"name":"Banchpar","country":"Bangladesh","latitude":23.2,"longitude":90.8},{"name":"Faridpur","country":"Bangladesh","latitude":23.5986,"longitude":89.8353},{"name":"Feni","country":"Bangladesh","latitude":23.015,"longitude":91.3967},{"name":"Brahmanpara","country":"Bangladesh","latitude":23.6167,"longitude":91.1083},{"name":"Nazipur","country":"Bangladesh","latitude":25.0415,"longitude":88.7605},{"name":"Kushtia","country":"Bangladesh","latitude":23.9088,"longitude":89.1221}]},{"name":"Barbados","iso2":"BB","iso3":"BRB","cities":[{"name":"Bridgetown","country":"Barbados","latitude":13.0975,"longitude":-59.6167},{"name":"Cave Hill","country":"Barbados","latitude":13.3042,"longitude":-59.5853}]},{"name":"Belarus","iso2":"BY","iso3":"BLR","cities":[{"name":"Minsk","country":"Belarus","latitude":53.9022,"longitude":27.5618},{"name":"Homyel'","country":"Belarus","latitude":52.4417,"longitude":30.9833},{"name":"Hrodna","country":"Belarus","latitude":53.6667,"longitude":23.8167},{"name":"Vitsyebsk","country":"Belarus","latitude":55.1833,"longitude":30.1667},{"name":"Mahilyow","country":"Belarus","latitude":53.9089,"longitude":30.343},{"name":"Brest","country":"Belarus","latitude":52.0847,"longitude":23.6569},{"name":"Babruysk","country":"Belarus","latitude":53.15,"longitude":29.2333},{"name":"Baranavichy","country":"Belarus","latitude":53.1325,"longitude":26.0178},{"name":"Pinsk","country":"Belarus","latitude":52.1153,"longitude":26.1031},{"name":"Mazyr","country":"Belarus","latitude":52.05,"longitude":29.2333},{"name":"Lida","country":"Belarus","latitude":53.8956,"longitude":25.2958},{"name":"Orsha","country":"Belarus","latitude":54.5092,"longitude":30.4258},{"name":"Salihorsk","country":"Belarus","latitude":52.7842,"longitude":27.5425},{"name":"Navapolatsk","country":"Belarus","latitude":55.5333,"longitude":28.6667},{"name":"Maladzyechna","country":"Belarus","latitude":54.3136,"longitude":26.8517},{"name":"Polatsk","country":"Belarus","latitude":55.4833,"longitude":28.8},{"name":"Zhlobin","country":"Belarus","latitude":52.9,"longitude":30.0333},{"name":"Rechytsa","country":"Belarus","latitude":52.3724,"longitude":30.388},{"name":"Svyetlahorsk","country":"Belarus","latitude":52.6333,"longitude":29.7333},{"name":"Slutsk","country":"Belarus","latitude":53.0167,"longitude":27.55},{"name":"Kobryn","country":"Belarus","latitude":52.2125,"longitude":24.3567},{"name":"Slonim","country":"Belarus","latitude":53.0833,"longitude":25.3167},{"name":"Vawkavysk","country":"Belarus","latitude":53.1667,"longitude":24.4667},{"name":"Kalinkavichy","country":"Belarus","latitude":52.1333,"longitude":29.3333},{"name":"Smarhon","country":"Belarus","latitude":54.4836,"longitude":26.4},{"name":"Rahachow","country":"Belarus","latitude":53.1,"longitude":30.05},{"name":"Dzyarzhynsk","country":"Belarus","latitude":53.6833,"longitude":27.1333},{"name":"Asipovichy","country":"Belarus","latitude":53.3,"longitude":28.6333},{"name":"Horki","country":"Belarus","latitude":54.2833,"longitude":30.9833},{"name":"Byaroza","country":"Belarus","latitude":52.5333,"longitude":24.9825}]},{"name":"Belgium","iso2":"BE","iso3":"BEL","cities":[{"name":"Brussels","country":"Belgium","latitude":50.8333,"longitude":4.3333},{"name":"Antwerp","country":"Belgium","latitude":51.2206,"longitude":4.4003},{"name":"Gent","country":"Belgium","latitude":51.0536,"longitude":3.7253},{"name":"Charleroi","country":"Belgium","latitude":50.4095,"longitude":4.4525},{"name":"Liege","country":"Belgium","latitude":50.6397,"longitude":5.5706},{"name":"Schaarbeek","country":"Belgium","latitude":50.8675,"longitude":4.3736},{"name":"Anderlecht","country":"Belgium","latitude":50.8392,"longitude":4.3297},{"name":"Bruges","country":"Belgium","latitude":51.2089,"longitude":3.2242},{"name":"Namur","country":"Belgium","latitude":50.4667,"longitude":4.8667},{"name":"Sint-Jans-Molenbeek","country":"Belgium","latitude":50.8547,"longitude":4.3386},{"name":"Moortebeek","country":"Belgium","latitude":50.8455,"longitude":4.2862},{"name":"Mons","country":"Belgium","latitude":50.4547,"longitude":3.9525},{"name":"Aalst","country":"Belgium","latitude":50.9383,"longitude":4.0391},{"name":"Ixelles","country":"Belgium","latitude":50.8331,"longitude":4.3669},{"name":"Mechelen","country":"Belgium","latitude":51.0281,"longitude":4.4803},{"name":"Deurne","country":"Belgium","latitude":51.2247,"longitude":4.4625},{"name":"La Louviere","country":"Belgium","latitude":50.4778,"longitude":4.1881},{"name":"Sint-Niklaas","country":"Belgium","latitude":51.1644,"longitude":4.1392},{"name":"Kortrijk","country":"Belgium","latitude":50.8275,"longitude":3.2658},{"name":"Hasselt","country":"Belgium","latitude":50.9304,"longitude":5.3383},{"name":"Ostend","country":"Belgium","latitude":51.2258,"longitude":2.9194},{"name":"Tournai","country":"Belgium","latitude":50.6069,"longitude":3.3896},{"name":"Genk","country":"Belgium","latitude":50.9653,"longitude":5.5006},{"name":"Roeselare","country":"Belgium","latitude":50.9447,"longitude":3.1233},{"name":"Seraing","country":"Belgium","latitude":50.5986,"longitude":5.5122},{"name":"Laeken","country":"Belgium","latitude":50.8667,"longitude":4.35},{"name":"Mouscron","country":"Belgium","latitude":50.7433,"longitude":3.2148},{"name":"Sint-Lambrechts-Woluwe","country":"Belgium","latitude":50.8437,"longitude":4.426},{"name":"Forest","country":"Belgium","latitude":50.8117,"longitude":4.3181},{"name":"Verviers","country":"Belgium","latitude":50.5835,"longitude":5.8641}]},{"name":"Belize","iso2":"BZ","iso3":"BLZ","cities":[{"name":"Belize City","country":"Belize","latitude":17.4986,"longitude":-88.1886},{"name":"San Ignacio","country":"Belize","latitude":17.1588,"longitude":-89.0696},{"name":"Belmopan","country":"Belize","latitude":17.25,"longitude":-88.7675},{"name":"San Pedro","country":"Belize","latitude":17.9214,"longitude":-87.9611},{"name":"Orange Walk","country":"Belize","latitude":18.075,"longitude":-88.5583},{"name":"Dangriga","country":"Belize","latitude":16.9663,"longitude":-88.2242},{"name":"Corozal","country":"Belize","latitude":18.4,"longitude":-88.4},{"name":"Punta Gorda","country":"Belize","latitude":16.1,"longitude":-88.8}]},{"name":"Benin","iso2":"BJ","iso3":"BEN","cities":[{"name":"Banikoara","country":"Benin","latitude":11.3,"longitude":2.4333},{"name":"Cotonou","country":"Benin","latitude":6.3667,"longitude":2.4167},{"name":"Godome","country":"Benin","latitude":6.3667,"longitude":2.35},{"name":"Djougou","country":"Benin","latitude":9.7,"longitude":1.6667},{"name":"Porto-Novo","country":"Benin","latitude":6.4833,"longitude":2.6167},{"name":"Tchaourou","country":"Benin","latitude":8.8833,"longitude":2.6},{"name":"Parakou","country":"Benin","latitude":9.35,"longitude":2.6167},{"name":"Bakaga","country":"Benin","latitude":9.3,"longitude":2.6667},{"name":"Kandi","country":"Benin","latitude":11.1286,"longitude":2.9369},{"name":"Aplahoue","country":"Benin","latitude":6.9333,"longitude":1.6833},{"name":"Kalale","country":"Benin","latitude":10.2953,"longitude":3.3817},{"name":"Malanville","country":"Benin","latitude":11.8667,"longitude":3.3833},{"name":"Ouidah","country":"Benin","latitude":6.3667,"longitude":2.0833},{"name":"Ketou","country":"Benin","latitude":7.3581,"longitude":2.6075},{"name":"Bohicon","country":"Benin","latitude":7.2,"longitude":2.0667},{"name":"Djakotome","country":"Benin","latitude":6.9,"longitude":1.7167},{"name":"Zagnanado","country":"Benin","latitude":7.2667,"longitude":2.35},{"name":"Bassila","country":"Benin","latitude":9.0167,"longitude":1.6667},{"name":"Avrankou","country":"Benin","latitude":6.55,"longitude":2.6667},{"name":"Allada","country":"Benin","latitude":6.665,"longitude":2.1522},{"name":"Misserete","country":"Benin","latitude":6.5625,"longitude":2.5853},{"name":"Glazoue","country":"Benin","latitude":7.9736,"longitude":2.24},{"name":"Pobe","country":"Benin","latitude":6.9667,"longitude":2.6833},{"name":"Djidja","country":"Benin","latitude":7.3444,"longitude":1.9333},{"name":"Lalo","country":"Benin","latitude":6.9167,"longitude":1.8833},{"name":"Gogounou","country":"Benin","latitude":10.8386,"longitude":2.8361},{"name":"Adjaouere","country":"Benin","latitude":7.0,"longitude":2.6167},{"name":"Sakete","country":"Benin","latitude":6.7364,"longitude":2.6581},{"name":"Materi","country":"Benin","latitude":10.7986,"longitude":1.0276},{"name":"Ifanhim","country":"Benin","latitude":6.6667,"longitude":2.6667}]},{"name":"Bermuda","iso2":"BM","iso3":"BMU","cities":[{"name":"Hamilton","country":"Bermuda","latitude":32.295,"longitude":-64.7831}]},{"name":"Bhutan","iso2":"BT","iso3":"BTN","cities":[{"name":"Thimphu","country":"Bhutan","latitude":27.4714,"longitude":89.6337},{"name":"Phuntsholing","country":"Bhutan","latitude":26.85,"longitude":89.3833},{"name":"Geylegphug","country":"Bhutan","latitude":26.8706,"longitude":90.4856},{"name":"Samdrup Jongkhar","country":"Bhutan","latitude":26.7978,"longitude":91.5043},{"name":"Wangdue Phodrang","country":"Bhutan","latitude":27.4667,"longitude":89.9},{"name":"Punakha","country":"Bhutan","latitude":27.6167,"longitude":89.8667},{"name":"Jakar","country":"Bhutan","latitude":27.5592,"longitude":90.7333},{"name":"Samtse","country":"Bhutan","latitude":26.8667,"longitude":89.1},{"name":"Mongar","country":"Bhutan","latitude":27.275,"longitude":91.24},{"name":"Trashigang","country":"Bhutan","latitude":27.3333,"longitude":91.5528},{"name":"Trashi Yangtse","country":"Bhutan","latitude":27.5833,"longitude":91.4667},{"name":"Trongsa","country":"Bhutan","latitude":27.5168,"longitude":90.5},{"name":"Paro","country":"Bhutan","latitude":27.4333,"longitude":89.4167},{"name":"Zhemgang","country":"Bhutan","latitude":27.2333,"longitude":90.65},{"name":"Lhuentse","country":"Bhutan","latitude":27.65,"longitude":91.15},{"name":"Daga","country":"Bhutan","latitude":27.1186,"longitude":89.8667}]},{"name":"Bolivia","iso2":"BO","iso3":"BOL","cities":[{"name":"Santa Cruz de la Sierra","country":"Bolivia","latitude":-17.7892,"longitude":-63.1975},{"name":"La Paz","country":"Bolivia","latitude":-16.4958,"longitude":-68.1333},{"name":"El Alto","country":"Bolivia","latitude":-16.5047,"longitude":-68.1633},{"name":"Cochabamba","country":"Bolivia","latitude":-17.3935,"longitude":-66.157},{"name":"Sucre","country":"Bolivia","latitude":-19.0475,"longitude":-65.26},{"name":"Oruro","country":"Bolivia","latitude":-17.9592,"longitude":-67.1095},{"name":"Oruro","country":"Bolivia","latitude":-17.9667,"longitude":-67.1167},{"name":"Tarija","country":"Bolivia","latitude":-21.5339,"longitude":-64.7342},{"name":"Warnes","country":"Bolivia","latitude":-17.5103,"longitude":-63.1647},{"name":"Potosi","country":"Bolivia","latitude":-19.5892,"longitude":-65.7533},{"name":"Sacaba","country":"Bolivia","latitude":-17.4042,"longitude":-66.0408},{"name":"Quillacollo","country":"Bolivia","latitude":-17.3975,"longitude":-66.2817},{"name":"Trinidad","country":"Bolivia","latitude":-14.8333,"longitude":-64.9},{"name":"Montero","country":"Bolivia","latitude":-17.3425,"longitude":-63.2553},{"name":"Yacuiba","country":"Bolivia","latitude":-22.0139,"longitude":-63.6778},{"name":"Cobija","country":"Bolivia","latitude":-11.0183,"longitude":-68.7537},{"name":"Riberalta","country":"Bolivia","latitude":-11.005,"longitude":-66.0661},{"name":"Caranavi","country":"Bolivia","latitude":-15.8339,"longitude":-67.5658},{"name":"Tiquipaya","country":"Bolivia","latitude":-17.3381,"longitude":-66.2189},{"name":"Sipe Sipe","country":"Bolivia","latitude":-17.45,"longitude":-66.3833},{"name":"Santiago del Torno","country":"Bolivia","latitude":-17.9947,"longitude":-63.3842},{"name":"Vinto","country":"Bolivia","latitude":-17.3972,"longitude":-66.3136},{"name":"Colcapirhua","country":"Bolivia","latitude":-17.3908,"longitude":-66.2386},{"name":"Tupiza","country":"Bolivia","latitude":-21.4423,"longitude":-65.719},{"name":"Villamontes","country":"Bolivia","latitude":-21.2647,"longitude":-63.4586},{"name":"Guayaramerin","country":"Bolivia","latitude":-10.8267,"longitude":-65.3567},{"name":"Viacha","country":"Bolivia","latitude":-16.6333,"longitude":-68.2833},{"name":"Camiri","country":"Bolivia","latitude":-20.0385,"longitude":-63.5183},{"name":"San Ignacio de Velasco","country":"Bolivia","latitude":-16.3742,"longitude":-60.96},{"name":"Uyuni","country":"Bolivia","latitude":-20.4628,"longitude":-66.8239}]},{"name":"Bonaire, Sint Eustatius, and Saba","iso2":"BQ","iso3":"BES","cities":[{"name":"Kralendijk","country":"Bonaire, Sint Eustatius, and Saba","latitude":12.1508,"longitude":-68.2767},{"name":"Oranjestad","country":"Bonaire, Sint Eustatius, and Saba","latitude":17.4833,"longitude":-62.9833},{"name":"The Bottom","country":"Bonaire, Sint Eustatius, and Saba","latitude":17.6261,"longitude":-63.2492}]},{"name":"Bosnia and Herzegovina","iso2":"BA","iso3":"BIH","cities":[{"name":"Sarajevo","country":"Bosnia and Herzegovina","latitude":43.8564,"longitude":18.4131},{"name":"Banja Luka","country":"Bosnia and Herzegovina","latitude":44.7725,"longitude":17.1925},{"name":"Tuzla","country":"Bosnia and Herzegovina","latitude":44.5391,"longitude":18.6752},{"name":"Mostar","country":"Bosnia and Herzegovina","latitude":43.3436,"longitude":17.8075},{"name":"Prijedor","country":"Bosnia and Herzegovina","latitude":44.9667,"longitude":16.7},{"name":"Zenica","country":"Bosnia and Herzegovina","latitude":44.2017,"longitude":17.9039},{"name":"Doboj","country":"Bosnia and Herzegovina","latitude":44.7333,"longitude":18.1333},{"name":"Ilidza","country":"Bosnia and Herzegovina","latitude":43.8331,"longitude":18.3039},{"name":"Zivinice","country":"Bosnia and Herzegovina","latitude":44.45,"longitude":18.65},{"name":"Bihac","country":"Bosnia and Herzegovina","latitude":44.8147,"longitude":15.8692},{"name":"Bijeljina","country":"Bosnia and Herzegovina","latitude":44.7567,"longitude":19.2156},{"name":"Tesanj","country":"Bosnia and Herzegovina","latitude":44.6135,"longitude":17.9894},{"name":"Brcko","country":"Bosnia and Herzegovina","latitude":44.8783,"longitude":18.8092},{"name":"Zepce","country":"Bosnia and Herzegovina","latitude":44.4333,"longitude":18.0333},{"name":"Trebinje","country":"Bosnia and Herzegovina","latitude":42.7089,"longitude":18.3217},{"name":"Siroki Brijeg","country":"Bosnia and Herzegovina","latitude":43.3667,"longitude":17.5833},{"name":"Ljubuski","country":"Bosnia and Herzegovina","latitude":43.1981,"longitude":17.5467},{"name":"Capljina","country":"Bosnia and Herzegovina","latitude":43.11,"longitude":17.7},{"name":"Banovici","country":"Bosnia and Herzegovina","latitude":44.4089,"longitude":18.5287},{"name":"Vogosca","country":"Bosnia and Herzegovina","latitude":43.9,"longitude":18.35},{"name":"Hadzici","country":"Bosnia and Herzegovina","latitude":43.8236,"longitude":18.2211},{"name":"Pale","country":"Bosnia and Herzegovina","latitude":43.8167,"longitude":18.5667},{"name":"Posusje","country":"Bosnia and Herzegovina","latitude":43.4722,"longitude":17.3267},{"name":"Ilijas","country":"Bosnia and Herzegovina","latitude":43.9583,"longitude":18.2667},{"name":"Busovaca","country":"Bosnia and Herzegovina","latitude":44.0978,"longitude":17.8783},{"name":"Citluk","country":"Bosnia and Herzegovina","latitude":43.2286,"longitude":17.7008},{"name":"Gornji Vakuf","country":"Bosnia and Herzegovina","latitude":43.9333,"longitude":17.5833},{"name":"Sanski Most","country":"Bosnia and Herzegovina","latitude":44.7667,"longitude":16.6667},{"name":"Bugojno","country":"Bosnia and Herzegovina","latitude":44.0572,"longitude":17.4508},{"name":"Travnik","country":"Bosnia and Herzegovina","latitude":44.2254,"longitude":17.6669}]},{"name":"Botswana","iso2":"BW","iso3":"BWA","cities":[{"name":"Gaborone","country":"Botswana","latitude":-24.6569,"longitude":25.9086},{"name":"Francistown","country":"Botswana","latitude":-21.1736,"longitude":27.5125},{"name":"Mogoditshane","country":"Botswana","latitude":-24.6333,"longitude":25.8667},{"name":"Maun","country":"Botswana","latitude":-19.9833,"longitude":23.4167},{"name":"Molepolole","country":"Botswana","latitude":-24.4066,"longitude":25.4951},{"name":"Tlokweng","country":"Botswana","latitude":-24.6686,"longitude":25.9711},{"name":"Selibe Phikwe","country":"Botswana","latitude":-21.9667,"longitude":27.9167},{"name":"Kanye","country":"Botswana","latitude":-24.9833,"longitude":25.35},{"name":"Serowe","country":"Botswana","latitude":-22.3833,"longitude":26.7167},{"name":"Mochudi","country":"Botswana","latitude":-24.4167,"longitude":26.15},{"name":"Mahalapye","country":"Botswana","latitude":-23.1041,"longitude":26.8142},{"name":"Palapye","country":"Botswana","latitude":-22.55,"longitude":27.1333},{"name":"Lobatse","country":"Botswana","latitude":-25.2167,"longitude":25.6667},{"name":"Ramotswa","country":"Botswana","latitude":-24.8667,"longitude":25.8167},{"name":"Ghanzi","country":"Botswana","latitude":-21.7,"longitude":21.65},{"name":"Bobonong","country":"Botswana","latitude":-21.9655,"longitude":28.4363},{"name":"Letlhakane","country":"Botswana","latitude":-21.425,"longitude":25.5892},{"name":"Gabane","country":"Botswana","latitude":-24.6667,"longitude":25.7822},{"name":"Mosopa","country":"Botswana","latitude":-24.7792,"longitude":25.4183},{"name":"Thamaga","country":"Botswana","latitude":-24.7167,"longitude":25.5333},{"name":"Jwaneng","country":"Botswana","latitude":-24.6017,"longitude":24.7281},{"name":"Mmopone","country":"Botswana","latitude":-24.5669,"longitude":25.8733},{"name":"Mmadinare","country":"Botswana","latitude":-21.8765,"longitude":27.7518},{"name":"Kopong","country":"Botswana","latitude":-24.4686,"longitude":25.8922},{"name":"Kasane","country":"Botswana","latitude":-17.7983,"longitude":25.1536},{"name":"Tshabong","country":"Botswana","latitude":-26.02,"longitude":22.4056},{"name":"Shoshong","country":"Botswana","latitude":-23.0333,"longitude":26.5167},{"name":"Metsemotlhaba","country":"Botswana","latitude":-24.5531,"longitude":25.8039},{"name":"Nata","country":"Botswana","latitude":-20.2103,"longitude":26.1867},{"name":"Masunga","country":"Botswana","latitude":-20.6245,"longitude":27.4488}]},{"name":"Brazil","iso2":"BR","iso3":"BRA","cities":[{"name":"Sao Paulo","country":"Brazil","latitude":-23.5504,"longitude":-46.6339},{"name":"Rio de Janeiro","country":"Brazil","latitude":-22.9111,"longitude":-43.2056},{"name":"Belo Horizonte","country":"Brazil","latitude":-19.9281,"longitude":-43.9419},{"name":"Fortaleza","country":"Brazil","latitude":-3.7275,"longitude":-38.5275},{"name":"Brasilia","country":"Brazil","latitude":-15.7939,"longitude":-47.8828},{"name":"Teresina","country":"Brazil","latitude":-5.0903,"longitude":-42.8167},{"name":"Salvador","country":"Brazil","latitude":-12.9831,"longitude":-38.4928},{"name":"Manaus","country":"Brazil","latitude":-3.1189,"longitude":-60.0217},{"name":"Campinas","country":"Brazil","latitude":-22.9009,"longitude":-47.0573},{"name":"Curitiba","country":"Brazil","latitude":-25.4297,"longitude":-49.2719},{"name":"Recife","country":"Brazil","latitude":-8.0539,"longitude":-34.8808},{"name":"Goiania","country":"Brazil","latitude":-16.6806,"longitude":-49.2564},{"name":"Porto Alegre","country":"Brazil","latitude":-30.0328,"longitude":-51.23},{"name":"Guarulhos","country":"Brazil","latitude":-23.4667,"longitude":-46.5333},{"name":"Belem","country":"Brazil","latitude":-1.4558,"longitude":-48.5039},{"name":"Sao Luis","country":"Brazil","latitude":-2.53,"longitude":-44.3028},{"name":"Campo Grande","country":"Brazil","latitude":-20.4686,"longitude":-54.6222},{"name":"Maceio","country":"Brazil","latitude":-9.6658,"longitude":-35.735},{"name":"Sao Goncalo","country":"Brazil","latitude":-22.8269,"longitude":-43.0539},{"name":"Joao Pessoa","country":"Brazil","latitude":-7.12,"longitude":-34.88},{"name":"Sao Bernardo do Campo","country":"Brazil","latitude":-23.6939,"longitude":-46.565},{"name":"Uberlandia","country":"Brazil","latitude":-18.9189,"longitude":-48.2769},{"name":"Natal","country":"Brazil","latitude":-5.795,"longitude":-35.2089},{"name":"Santo Andre","country":"Brazil","latitude":-23.6533,"longitude":-46.528},{"name":"Sao Jose dos Campos","country":"Brazil","latitude":-23.1789,"longitude":-45.8869},{"name":"Ribeirao Preto","country":"Brazil","latitude":-21.1776,"longitude":-47.8101},{"name":"Osasco","country":"Brazil","latitude":-23.5667,"longitude":-46.7833},{"name":"Sorocaba","country":"Brazil","latitude":-23.5019,"longitude":-47.4578},{"name":"Jaboatao dos Guararapes","country":"Brazil","latitude":-8.1128,"longitude":-35.015},{"name":"Cuiaba","country":"Brazil","latitude":-15.5958,"longitude":-56.0969}]},{"name":"Brunei","iso2":"BN","iso3":"BRN","cities":[{"name":"Bandar Seri Begawan","country":"Brunei","latitude":4.9167,"longitude":114.9167},{"name":"Seria","country":"Brunei","latitude":4.6142,"longitude":114.3303},{"name":"Tutong","country":"Brunei","latitude":4.8067,"longitude":114.6592},{"name":"Kampong Tunah Jambu","country":"Brunei","latitude":4.9957,"longitude":115.0019},{"name":"Kuala Belait","country":"Brunei","latitude":4.5828,"longitude":114.1918},{"name":"Bangar","country":"Brunei","latitude":4.7086,"longitude":115.0739}]},{"name":"Bulgaria","iso2":"BG","iso3":"BGR","cities":[{"name":"Sofia","country":"Bulgaria","latitude":42.6979,"longitude":23.3217},{"name":"Plovdiv","country":"Bulgaria","latitude":42.1434,"longitude":24.751},{"name":"Varna","country":"Bulgaria","latitude":43.2114,"longitude":27.9111},{"name":"Burgas","country":"Bulgaria","latitude":42.503,"longitude":27.4702},{"name":"Stara Zagora","country":"Bulgaria","latitude":42.4333,"longitude":25.65},{"name":"Ruse","country":"Bulgaria","latitude":43.8445,"longitude":25.9539},{"name":"Sliven","country":"Bulgaria","latitude":42.6833,"longitude":26.3333},{"name":"Pleven","country":"Bulgaria","latitude":43.4167,"longitude":24.6167},{"name":"Pazardzhik","country":"Bulgaria","latitude":42.1935,"longitude":24.3328},{"name":"Shumen","country":"Bulgaria","latitude":43.2746,"longitude":26.9349},{"name":"Pernik","country":"Bulgaria","latitude":42.6,"longitude":23.033},{"name":"Haskovo","country":"Bulgaria","latitude":41.933,"longitude":25.567},{"name":"Veliko Tarnovo","country":"Bulgaria","latitude":43.0787,"longitude":25.6283},{"name":"Dobrich","country":"Bulgaria","latitude":43.5667,"longitude":27.8333},{"name":"Blagoevgrad","country":"Bulgaria","latitude":42.0227,"longitude":23.0975},{"name":"Kardzhali","country":"Bulgaria","latitude":41.65,"longitude":25.367},{"name":"Kazanlak","country":"Bulgaria","latitude":42.617,"longitude":25.4},{"name":"Kyustendil","country":"Bulgaria","latitude":42.2797,"longitude":22.687},{"name":"Vratsa","country":"Bulgaria","latitude":43.2121,"longitude":23.5444},{"name":"Yambol","country":"Bulgaria","latitude":42.4833,"longitude":26.5},{"name":"Asenovgrad","country":"Bulgaria","latitude":42.0167,"longitude":24.8667},{"name":"Gabrovo","country":"Bulgaria","latitude":42.8742,"longitude":25.3178},{"name":"Targovishte","country":"Bulgaria","latitude":43.25,"longitude":26.583},{"name":"Vidin","country":"Bulgaria","latitude":43.9887,"longitude":22.8741},{"name":"Razgrad","country":"Bulgaria","latitude":43.5409,"longitude":26.5288},{"name":"Montana","country":"Bulgaria","latitude":43.4086,"longitude":23.2257},{"name":"Silistra","country":"Bulgaria","latitude":44.1092,"longitude":27.2654},{"name":"Dimitrovgrad","country":"Bulgaria","latitude":42.05,"longitude":25.6},{"name":"Lovech","country":"Bulgaria","latitude":43.1348,"longitude":24.7115},{"name":"Smolyan","country":"Bulgaria","latitude":41.583,"longitude":24.7}]},{"name":"Burkina Faso","iso2":"BF","iso3":"BFA","cities":[{"name":"Ouagadougou","country":"Burkina Faso","latitude":12.3686,"longitude":-1.5275},{"name":"Bobo-Dioulasso","country":"Burkina Faso","latitude":11.1833,"longitude":-4.2833},{"name":"Koudougou","country":"Burkina Faso","latitude":12.25,"longitude":-2.3667},{"name":"Ouahigouya","country":"Burkina Faso","latitude":13.5833,"longitude":-2.4167},{"name":"Kaya","country":"Burkina Faso","latitude":13.0833,"longitude":-1.0833},{"name":"Banfora","country":"Burkina Faso","latitude":10.6308,"longitude":-4.7589},{"name":"Pouytenga","country":"Burkina Faso","latitude":12.25,"longitude":-0.4333},{"name":"Hounde","country":"Burkina Faso","latitude":11.5,"longitude":-3.5167},{"name":"Fada Ngourma","country":"Burkina Faso","latitude":12.05,"longitude":0.3667},{"name":"Dedougou","country":"Burkina Faso","latitude":12.4667,"longitude":-3.4667},{"name":"Djibo","country":"Burkina Faso","latitude":14.1011,"longitude":-1.6306},{"name":"Tenkodogo","country":"Burkina Faso","latitude":11.7833,"longitude":-0.3667},{"name":"Kongoussi","country":"Burkina Faso","latitude":13.3333,"longitude":-1.5333},{"name":"Titao","country":"Burkina Faso","latitude":13.7667,"longitude":-2.0736},{"name":"Dori","country":"Burkina Faso","latitude":14.0328,"longitude":-0.0348},{"name":"Koupela","country":"Burkina Faso","latitude":12.1794,"longitude":-0.3517},{"name":"Gaoua","country":"Burkina Faso","latitude":10.3167,"longitude":-3.1667},{"name":"Garango","country":"Burkina Faso","latitude":11.8047,"longitude":-0.5489},{"name":"Tanghin-Dassouri","country":"Burkina Faso","latitude":12.2747,"longitude":-1.7164},{"name":"Gourcy","country":"Burkina Faso","latitude":13.2063,"longitude":-2.3586},{"name":"Yako","country":"Burkina Faso","latitude":12.9667,"longitude":-2.2667},{"name":"Binde","country":"Burkina Faso","latitude":11.75,"longitude":-1.09},{"name":"Zorgo","country":"Burkina Faso","latitude":12.25,"longitude":-0.6167},{"name":"Reo","country":"Burkina Faso","latitude":12.3167,"longitude":-2.4667},{"name":"Niangoloko","country":"Burkina Faso","latitude":10.2833,"longitude":-4.9167},{"name":"Orodara","country":"Burkina Faso","latitude":10.9825,"longitude":-4.9148},{"name":"Ziniare","country":"Burkina Faso","latitude":12.5833,"longitude":-1.3},{"name":"Nouna","country":"Burkina Faso","latitude":12.7329,"longitude":-3.8622},{"name":"Bittou","country":"Burkina Faso","latitude":11.25,"longitude":-0.3},{"name":"Kombissiri","country":"Burkina Faso","latitude":12.0667,"longitude":-1.3333}]},{"name":"Burma","iso2":"MM","iso3":"MMR","cities":[{"name":"Rangoon","country":"Burma","latitude":16.8053,"longitude":96.1561},{"name":"Mandalay","country":"Burma","latitude":21.9747,"longitude":96.0836},{"name":"Nay Pyi Taw","country":"Burma","latitude":19.7475,"longitude":96.115},{"name":"Kyaukse","country":"Burma","latitude":21.6131,"longitude":96.1303},{"name":"Hpa-An","country":"Burma","latitude":16.8906,"longitude":97.6333},{"name":"Magway","country":"Burma","latitude":20.15,"longitude":94.95},{"name":"Pathein","country":"Burma","latitude":16.7667,"longitude":94.7333},{"name":"Bago","country":"Burma","latitude":17.3433,"longitude":96.4981},{"name":"Taunggyi","country":"Burma","latitude":20.7806,"longitude":97.0372},{"name":"Mawlamyine","country":"Burma","latitude":16.4847,"longitude":97.6258},{"name":"Meiktila","country":"Burma","latitude":20.8775,"longitude":95.8583},{"name":"Natogyi","country":"Burma","latitude":21.4167,"longitude":95.65},{"name":"Myitkyina","country":"Burma","latitude":25.3867,"longitude":97.3936},{"name":"Myeik","country":"Burma","latitude":12.4394,"longitude":98.6003},{"name":"Thingangyun","country":"Burma","latitude":16.8281,"longitude":96.1842},{"name":"Monywa","country":"Burma","latitude":22.1086,"longitude":95.1358},{"name":"Ingabu","country":"Burma","latitude":17.8167,"longitude":95.2667},{"name":"Kyaukpyu","country":"Burma","latitude":19.4333,"longitude":93.55},{"name":"Letpandan","country":"Burma","latitude":17.7866,"longitude":95.7507},{"name":"Katha","country":"Burma","latitude":24.1822,"longitude":96.3306},{"name":"Muse","country":"Burma","latitude":23.9792,"longitude":97.9047},{"name":"Mahlaing","country":"Burma","latitude":21.1,"longitude":95.65},{"name":"Mudon","country":"Burma","latitude":16.2561,"longitude":97.7244},{"name":"Lashio","country":"Burma","latitude":22.9358,"longitude":97.7497},{"name":"Kyaikmaraw","country":"Burma","latitude":16.3753,"longitude":97.7336},{"name":"Dawei","country":"Burma","latitude":14.0367,"longitude":98.1867},{"name":"Thanatpin","country":"Burma","latitude":17.2942,"longitude":96.58},{"name":"Myebon","country":"Burma","latitude":19.9822,"longitude":93.554},{"name":"Pyay","country":"Burma","latitude":18.82,"longitude":95.2156},{"name":"Mogaung","country":"Burma","latitude":25.3014,"longitude":96.9417}]},{"name":"Burundi","iso2":"BI","iso3":"BDI","cities":[{"name":"Bujumbura","country":"Burundi","latitude":-3.3825,"longitude":29.3611},{"name":"Gitega","country":"Burundi","latitude":-3.4271,"longitude":29.9246},{"name":"Gitega","country":"Burundi","latitude":-3.4283,"longitude":29.925},{"name":"Ruyigi","country":"Burundi","latitude":-3.3244,"longitude":30.1491},{"name":"Ngozi","country":"Burundi","latitude":-2.9075,"longitude":29.8306},{"name":"Rumonge","country":"Burundi","latitude":-3.9667,"longitude":29.4333},{"name":"Zanandore","country":"Burundi","latitude":-3.25,"longitude":30.1167},{"name":"Cibitoke","country":"Burundi","latitude":-2.8883,"longitude":29.1197},{"name":"Kayanza","country":"Burundi","latitude":-2.9221,"longitude":29.6293},{"name":"Bubanza","country":"Burundi","latitude":-3.0833,"longitude":29.4},{"name":"Gatumba","country":"Burundi","latitude":-3.3333,"longitude":29.25},{"name":"Karuzi","country":"Burundi","latitude":-3.1014,"longitude":30.165},{"name":"Kirundo","country":"Burundi","latitude":-2.5833,"longitude":30.1},{"name":"Muyinga","country":"Burundi","latitude":-2.85,"longitude":30.3333},{"name":"Makamba","country":"Burundi","latitude":-4.1333,"longitude":29.8},{"name":"Ruyigi","country":"Burundi","latitude":-3.4667,"longitude":30.25},{"name":"Rutana","country":"Burundi","latitude":-3.9236,"longitude":30.0061},{"name":"Muramvya","country":"Burundi","latitude":-3.25,"longitude":29.6},{"name":"Cankuzo","country":"Burundi","latitude":-3.2194,"longitude":30.5528}]},{"name":"Cabo Verde","iso2":"CV","iso3":"CPV","cities":[{"name":"Praia","country":"Cabo Verde","latitude":14.9177,"longitude":-23.5092},{"name":"Lazareto","country":"Cabo Verde","latitude":16.8667,"longitude":-25.0333},{"name":"Mindelo","country":"Cabo Verde","latitude":16.8914,"longitude":-24.988},{"name":"Tarrafal","country":"Cabo Verde","latitude":15.2787,"longitude":-23.7516},{"name":"Santa Maria","country":"Cabo Verde","latitude":16.6,"longitude":-22.9042},{"name":"Sao Filipe","country":"Cabo Verde","latitude":14.8951,"longitude":-24.5004},{"name":"Porto Novo","country":"Cabo Verde","latitude":17.0208,"longitude":-25.0667},{"name":"Assomada","country":"Cabo Verde","latitude":15.0949,"longitude":-23.6654},{"name":"Pedra Badejo","country":"Cabo Verde","latitude":15.1375,"longitude":-23.5333},{"name":"Sal Rei","country":"Cabo Verde","latitude":16.176,"longitude":-22.9171},{"name":"Espargos","country":"Cabo Verde","latitude":16.7546,"longitude":-22.9453},{"name":"Tarrafal","country":"Cabo Verde","latitude":16.5667,"longitude":-24.3556},{"name":"Ponta do Sol","country":"Cabo Verde","latitude":17.2018,"longitude":-25.0915},{"name":"Calheta de Sao Miguel","country":"Cabo Verde","latitude":15.1875,"longitude":-23.5917},{"name":"Porto Ingles","country":"Cabo Verde","latitude":15.1375,"longitude":-23.2083},{"name":"Ribeira Grande","country":"Cabo Verde","latitude":17.1827,"longitude":-25.0655},{"name":"Sao Domingos","country":"Cabo Verde","latitude":15.025,"longitude":-23.5625},{"name":"Cidade Velha","country":"Cabo Verde","latitude":14.9167,"longitude":-23.6042},{"name":"Joao Teves","country":"Cabo Verde","latitude":15.0667,"longitude":-23.5917},{"name":"Cova Figueira","country":"Cabo Verde","latitude":14.8899,"longitude":-24.294},{"name":"Pombas","country":"Cabo Verde","latitude":17.1458,"longitude":-25.0125},{"name":"Picos","country":"Cabo Verde","latitude":15.0833,"longitude":-23.6333},{"name":"Nova Sintra","country":"Cabo Verde","latitude":14.8708,"longitude":-24.6958}]},{"name":"Cambodia","iso2":"KH","iso3":"KHM","cities":[{"name":"Phnom Penh","country":"Cambodia","latitude":11.5696,"longitude":104.921},{"name":"Siem Reap","country":"Cambodia","latitude":13.3622,"longitude":103.8597},{"name":"Battambang","country":"Cambodia","latitude":13.1028,"longitude":103.1983},{"name":"Kampong Cham","country":"Cambodia","latitude":11.9933,"longitude":105.4636},{"name":"Sisophon","country":"Cambodia","latitude":13.5839,"longitude":102.9736},{"name":"Paoy Paet","country":"Cambodia","latitude":13.6564,"longitude":102.5622},{"name":"Kampong Trach","country":"Cambodia","latitude":10.55,"longitude":104.4667},{"name":"Sihanoukville","country":"Cambodia","latitude":10.6333,"longitude":103.5},{"name":"Samraong","country":"Cambodia","latitude":14.1817,"longitude":103.5176},{"name":"Kratie","country":"Cambodia","latitude":12.4881,"longitude":106.0188},{"name":"Pursat","country":"Cambodia","latitude":12.5333,"longitude":103.9167},{"name":"Takeo","country":"Cambodia","latitude":10.9833,"longitude":104.7833},{"name":"Chbar Mon","country":"Cambodia","latitude":11.4533,"longitude":104.5208},{"name":"Kampong Chhnang","country":"Cambodia","latitude":12.25,"longitude":104.6667},{"name":"Svay Rieng","country":"Cambodia","latitude":11.0833,"longitude":105.8},{"name":"Kampot","country":"Cambodia","latitude":10.6,"longitude":104.1667},{"name":"Krong Kep","country":"Cambodia","latitude":10.4833,"longitude":104.3167},{"name":"Suong","country":"Cambodia","latitude":11.9118,"longitude":105.6582},{"name":"Koh Kong","country":"Cambodia","latitude":11.6167,"longitude":102.9833},{"name":"Kampong Speu","country":"Cambodia","latitude":11.4533,"longitude":104.5208},{"name":"Prey Veng","country":"Cambodia","latitude":11.4833,"longitude":105.3167},{"name":"Kampong Thom","country":"Cambodia","latitude":12.7,"longitude":104.9},{"name":"Stung Treng","country":"Cambodia","latitude":13.5259,"longitude":105.9683},{"name":"Choam Ksant","country":"Cambodia","latitude":14.2154,"longitude":104.9412},{"name":"Tbeng Meanchey","country":"Cambodia","latitude":13.8073,"longitude":104.9805},{"name":"Preah Vihear","country":"Cambodia","latitude":13.8167,"longitude":104.9667},{"name":"Kampong Thum","country":"Cambodia","latitude":12.7044,"longitude":104.8852},{"name":"Lumphat","country":"Cambodia","latitude":13.4915,"longitude":106.9802},{"name":"Svay Pak","country":"Cambodia","latitude":11.6467,"longitude":104.8715},{"name":"Banlung","country":"Cambodia","latitude":13.7467,"longitude":107.0044}]},{"name":"Cameroon","iso2":"CM","iso3":"CMR","cities":[{"name":"Douala","country":"Cameroon","latitude":4.05,"longitude":9.7},{"name":"Yaounde","country":"Cameroon","latitude":3.8578,"longitude":11.5181},{"name":"Bamenda","country":"Cameroon","latitude":5.9614,"longitude":10.1517},{"name":"Garoua","country":"Cameroon","latitude":9.3,"longitude":13.4},{"name":"Bafoussam","country":"Cameroon","latitude":5.4667,"longitude":10.4167},{"name":"Guider","country":"Cameroon","latitude":9.9342,"longitude":13.9486},{"name":"Maroua","country":"Cameroon","latitude":10.5909,"longitude":14.3159},{"name":"Ngaoundere","country":"Cameroon","latitude":7.3214,"longitude":13.5839},{"name":"Bertoua","country":"Cameroon","latitude":4.5833,"longitude":13.6833},{"name":"Kumba","country":"Cameroon","latitude":4.6333,"longitude":9.45},{"name":"Nkongsamba","country":"Cameroon","latitude":4.95,"longitude":9.9167},{"name":"Bibemi","country":"Cameroon","latitude":9.3167,"longitude":13.8833},{"name":"Buea","country":"Cameroon","latitude":4.1667,"longitude":9.2333},{"name":"Kousseri","country":"Cameroon","latitude":12.0833,"longitude":15.0333},{"name":"Bogo","country":"Cameroon","latitude":10.7361,"longitude":14.6108},{"name":"Widekum","country":"Cameroon","latitude":5.8717,"longitude":9.7706},{"name":"Maga","country":"Cameroon","latitude":10.8434,"longitude":14.9396},{"name":"Limbe","country":"Cameroon","latitude":4.0167,"longitude":9.2167},{"name":"Foumban","country":"Cameroon","latitude":5.7167,"longitude":10.9167},{"name":"Kumbo","country":"Cameroon","latitude":6.2,"longitude":10.66},{"name":"Eseka","country":"Cameroon","latitude":3.65,"longitude":10.7667},{"name":"Tiko","country":"Cameroon","latitude":4.0786,"longitude":9.3681},{"name":"Ebolowa","country":"Cameroon","latitude":2.9167,"longitude":11.15},{"name":"Pitoa","country":"Cameroon","latitude":9.3833,"longitude":13.5333},{"name":"Dschang","country":"Cameroon","latitude":5.45,"longitude":10.05},{"name":"Edea","country":"Cameroon","latitude":3.8,"longitude":10.1333},{"name":"Tibati","country":"Cameroon","latitude":6.4669,"longitude":12.6158},{"name":"Melong","country":"Cameroon","latitude":5.1211,"longitude":9.9528},{"name":"Bafia","country":"Cameroon","latitude":4.7425,"longitude":11.2247},{"name":"Sangmelima","country":"Cameroon","latitude":2.93,"longitude":11.98}]},{"name":"Canada","iso2":"CA","iso3":"CAN","cities":[{"name":"Toronto","country":"Canada","latitude":43.7417,"longitude":-79.3733},{"name":"Montreal","country":"Canada","latitude":45.5089,"longitude":-73.5617},{"name":"Vancouver","country":"Canada","latitude":49.25,"longitude":-123.1},{"name":"Calgary","country":"Canada","latitude":51.05,"longitude":-114.0667},{"name":"Edmonton","country":"Canada","latitude":53.5344,"longitude":-113.4903},{"name":"Ottawa","country":"Canada","latitude":45.4247,"longitude":-75.695},{"name":"Winnipeg","country":"Canada","latitude":49.8844,"longitude":-97.1464},{"name":"Quebec City","country":"Canada","latitude":46.8139,"longitude":-71.2081},{"name":"Hamilton","country":"Canada","latitude":43.2567,"longitude":-79.8692},{"name":"Mississauga","country":"Canada","latitude":43.6,"longitude":-79.65},{"name":"Brampton","country":"Canada","latitude":43.6833,"longitude":-79.7667},{"name":"Surrey","country":"Canada","latitude":49.19,"longitude":-122.8489},{"name":"Kitchener","country":"Canada","latitude":43.4186,"longitude":-80.4728},{"name":"Halifax","country":"Canada","latitude":44.6475,"longitude":-63.5906},{"name":"Laval","country":"Canada","latitude":45.5833,"longitude":-73.75},{"name":"London","country":"Canada","latitude":42.9836,"longitude":-81.2497},{"name":"Victoria","country":"Canada","latitude":48.4283,"longitude":-123.3647},{"name":"Markham","country":"Canada","latitude":43.8767,"longitude":-79.2633},{"name":"Oshawa","country":"Canada","latitude":43.9,"longitude":-78.85},{"name":"Vaughan","country":"Canada","latitude":43.8333,"longitude":-79.5},{"name":"Windsor","country":"Canada","latitude":42.2833,"longitude":-83.0},{"name":"Gatineau","country":"Canada","latitude":45.4833,"longitude":-75.65},{"name":"Saskatoon","country":"Canada","latitude":52.1333,"longitude":-106.6833},{"name":"Longueuil","country":"Canada","latitude":45.5333,"longitude":-73.5167},{"name":"Burnaby","country":"Canada","latitude":49.2667,"longitude":-122.9667},{"name":"St. Catharines","country":"Canada","latitude":43.1833,"longitude":-79.2333},{"name":"Regina","country":"Canada","latitude":50.4547,"longitude":-104.6067},{"name":"Oakville","country":"Canada","latitude":43.45,"longitude":-79.6833},{"name":"Richmond","country":"Canada","latitude":49.1667,"longitude":-123.1333},{"name":"Richmond Hill","country":"Canada","latitude":43.8667,"longitude":-79.4333}]},{"name":"Cayman Islands","iso2":"KY","iso3":"CYM","cities":[{"name":"George Town","country":"Cayman Islands","latitude":19.2964,"longitude":-81.3817}]},{"name":"Central African Republic","iso2":"CF","iso3":"CAF","cities":[{"name":"Bangui","country":"Central African Republic","latitude":4.3732,"longitude":18.5628},{"name":"Bimbo","country":"Central African Republic","latitude":4.3313,"longitude":18.5163},{"name":"Berberati","country":"Central African Republic","latitude":4.2667,"longitude":15.7833},{"name":"Carnot","country":"Central African Republic","latitude":4.9333,"longitude":15.8667},{"name":"Bambari","country":"Central African Republic","latitude":5.7667,"longitude":20.6833},{"name":"Bouar","country":"Central African Republic","latitude":5.95,"longitude":15.6},{"name":"Bossangoa","country":"Central African Republic","latitude":6.4833,"longitude":17.45},{"name":"Bria","country":"Central African Republic","latitude":6.5369,"longitude":21.9919},{"name":"Bangassou","country":"Central African Republic","latitude":4.737,"longitude":22.819},{"name":"Nola","country":"Central African Republic","latitude":3.5249,"longitude":16.0458},{"name":"Kaga Bandoro","country":"Central African Republic","latitude":7.0006,"longitude":19.1808},{"name":"Sibut","country":"Central African Republic","latitude":5.7378,"longitude":19.0867},{"name":"Mbaiki","country":"Central African Republic","latitude":3.8833,"longitude":18.0},{"name":"Bozoum","country":"Central African Republic","latitude":6.3172,"longitude":16.3783},{"name":"Bakouma","country":"Central African Republic","latitude":5.5267,"longitude":22.5856},{"name":"Paoua","country":"Central African Republic","latitude":7.25,"longitude":16.4333},{"name":"Bobangui","country":"Central African Republic","latitude":4.05,"longitude":18.1167},{"name":"Batangafo","country":"Central African Republic","latitude":7.3,"longitude":18.3},{"name":"Kabo","country":"Central African Republic","latitude":7.6994,"longitude":18.6292},{"name":"Bocaranga","country":"Central African Republic","latitude":6.9843,"longitude":15.6408},{"name":"Ippy","country":"Central African Republic","latitude":6.2628,"longitude":21.1981},{"name":"Alindao","country":"Central African Republic","latitude":5.0333,"longitude":21.2167},{"name":"Rafai","country":"Central African Republic","latitude":4.9731,"longitude":23.9319},{"name":"Yaloke","country":"Central African Republic","latitude":5.3167,"longitude":17.0833},{"name":"Baoro","country":"Central African Republic","latitude":5.6946,"longitude":15.9533},{"name":"Gamboula","country":"Central African Republic","latitude":4.1333,"longitude":15.15},{"name":"Dekoa","country":"Central African Republic","latitude":6.3167,"longitude":19.0667},{"name":"Bouca","country":"Central African Republic","latitude":6.5072,"longitude":18.2753},{"name":"Mongoumba","country":"Central African Republic","latitude":3.6333,"longitude":18.6},{"name":"Boda","country":"Central African Republic","latitude":4.3219,"longitude":17.4647}]},{"name":"Chad","iso2":"TD","iso3":"TCD","cities":[{"name":"N'Djamena","country":"Chad","latitude":12.11,"longitude":15.05},{"name":"Moundou","country":"Chad","latitude":8.5667,"longitude":16.0833},{"name":"Sarh","country":"Chad","latitude":9.15,"longitude":18.3833},{"name":"Yao","country":"Chad","latitude":12.8508,"longitude":17.5608},{"name":"Lere","country":"Chad","latitude":9.6556,"longitude":14.225},{"name":"Abeche","country":"Chad","latitude":13.8331,"longitude":20.8347},{"name":"Goundi","country":"Chad","latitude":9.3639,"longitude":17.3644},{"name":"Goz-Beida","country":"Chad","latitude":12.2236,"longitude":21.4144},{"name":"Cheddra","country":"Chad","latitude":13.4428,"longitude":16.0508},{"name":"Deressia","country":"Chad","latitude":9.7603,"longitude":16.2697},{"name":"Faya","country":"Chad","latitude":17.93,"longitude":19.1031},{"name":"Kelo","country":"Chad","latitude":9.3091,"longitude":15.7938},{"name":"Fianga","country":"Chad","latitude":9.9153,"longitude":15.1375},{"name":"Pala Oua","country":"Chad","latitude":9.3641,"longitude":14.9097},{"name":"Koumra","country":"Chad","latitude":8.9182,"longitude":17.5484},{"name":"Am-Timan","country":"Chad","latitude":11.0333,"longitude":20.2833},{"name":"Chokoyan","country":"Chad","latitude":13.3667,"longitude":21.2333},{"name":"Iriba","country":"Chad","latitude":15.1167,"longitude":22.25},{"name":"Haraze","country":"Chad","latitude":9.9503,"longitude":20.905},{"name":"Am Dam","country":"Chad","latitude":12.7622,"longitude":20.4703},{"name":"Bongor","country":"Chad","latitude":10.2806,"longitude":15.3722},{"name":"Mongo","country":"Chad","latitude":12.1851,"longitude":18.6884},{"name":"Kouba Olanga","country":"Chad","latitude":15.75,"longitude":18.3},{"name":"Abou Deia","country":"Chad","latitude":11.4514,"longitude":19.28},{"name":"Oum Hadjer","country":"Chad","latitude":13.2833,"longitude":19.6833},{"name":"Krim Krim","country":"Chad","latitude":8.9795,"longitude":15.7952},{"name":"Doba","country":"Chad","latitude":8.65,"longitude":16.85},{"name":"Fada","country":"Chad","latitude":17.1833,"longitude":21.5833},{"name":"Amdjarass","country":"Chad","latitude":16.0667,"longitude":22.8354},{"name":"Ati","country":"Chad","latitude":13.2139,"longitude":18.3403}]},{"name":"Chile","iso2":"CL","iso3":"CHL","cities":[{"name":"Santiago","country":"Chile","latitude":-33.4375,"longitude":-70.65},{"name":"Valparaiso","country":"Chile","latitude":-33.0461,"longitude":-71.6197},{"name":"Concepcion","country":"Chile","latitude":-36.82,"longitude":-73.0445},{"name":"Puente Alto","country":"Chile","latitude":-33.6167,"longitude":-70.5833},{"name":"Maipu","country":"Chile","latitude":-33.5167,"longitude":-70.7667},{"name":"La Serena","country":"Chile","latitude":-29.9027,"longitude":-71.252},{"name":"La Florida","country":"Chile","latitude":-33.55,"longitude":-70.5667},{"name":"Antofagasta","country":"Chile","latitude":-23.6464,"longitude":-70.3981},{"name":"Vina del Mar","country":"Chile","latitude":-33.0245,"longitude":-71.5518},{"name":"San Bernardo","country":"Chile","latitude":-33.6,"longitude":-70.7167},{"name":"Las Condes","country":"Chile","latitude":-33.4167,"longitude":-70.5833},{"name":"Temuco","country":"Chile","latitude":-38.7399,"longitude":-72.5901},{"name":"Talcahuano","country":"Chile","latitude":-36.7145,"longitude":-73.1141},{"name":"Osorno","country":"Chile","latitude":-40.5739,"longitude":-73.1336},{"name":"Talca","country":"Chile","latitude":-35.4269,"longitude":-71.6656},{"name":"Rancagua","country":"Chile","latitude":-34.1654,"longitude":-70.7398},{"name":"Penalolen","country":"Chile","latitude":-33.4833,"longitude":-70.5333},{"name":"Quilicura","country":"Chile","latitude":-33.3667,"longitude":-70.75},{"name":"Coquimbo","country":"Chile","latitude":-29.9532,"longitude":-71.338},{"name":"Arica","country":"Chile","latitude":-18.4784,"longitude":-70.3212},{"name":"Iquique","country":"Chile","latitude":-20.2141,"longitude":-70.1524},{"name":"La Pintana","country":"Chile","latitude":-33.5833,"longitude":-70.6167},{"name":"El Bosque","country":"Chile","latitude":-33.5667,"longitude":-70.6667},{"name":"Puerto Montt","country":"Chile","latitude":-41.4718,"longitude":-72.9396},{"name":"Chillan","country":"Chile","latitude":-36.6067,"longitude":-72.1033},{"name":"Calama","country":"Chile","latitude":-22.4624,"longitude":-68.9272},{"name":"Copiapo","country":"Chile","latitude":-27.3665,"longitude":-70.3323},{"name":"Valdivia","country":"Chile","latitude":-39.8142,"longitude":-73.2459},{"name":"Melipilla","country":"Chile","latitude":-33.6855,"longitude":-71.2146},{"name":"Quilpue","country":"Chile","latitude":-33.0498,"longitude":-71.4415}]},{"name":"China","iso2":"CN","iso3":"CHN","cities":[{"name":"Chongqing","country":"China","latitude":29.55,"longitude":106.5069},{"name":"Guangzhou","country":"China","latitude":23.13,"longitude":113.26},{"name":"Shanghai","country":"China","latitude":31.2325,"longitude":121.4692},{"name":"Beijing","country":"China","latitude":39.904,"longitude":116.4075},{"name":"Chengdu","country":"China","latitude":30.66,"longitude":104.0633},{"name":"Shenzhen","country":"China","latitude":22.5467,"longitude":114.0544},{"name":"Tianjin","country":"China","latitude":39.1467,"longitude":117.2056},{"name":"Suzhou","country":"China","latitude":31.3,"longitude":120.6194},{"name":"Wuhan","country":"China","latitude":30.595,"longitude":114.2975},{"name":"Xi'an","country":"China","latitude":34.2611,"longitude":108.9422},{"name":"Hangzhou","country":"China","latitude":30.25,"longitude":120.1675},{"name":"Baoding","country":"China","latitude":38.8671,"longitude":115.4845},{"name":"Linyi","country":"China","latitude":35.1041,"longitude":118.3502},{"name":"Dongguan","country":"China","latitude":23.0475,"longitude":113.7493},{"name":"Harbin","country":"China","latitude":45.75,"longitude":126.6333},{"name":"Qingdao","country":"China","latitude":36.1167,"longitude":120.4},{"name":"Nanyang","country":"China","latitude":32.9987,"longitude":112.5292},{"name":"Foshan","country":"China","latitude":23.0292,"longitude":113.1056},{"name":"Nanjing","country":"China","latitude":32.0608,"longitude":118.7789},{"name":"Jinan","country":"China","latitude":36.6667,"longitude":116.9833},{"name":"Tongshan","country":"China","latitude":34.261,"longitude":117.1859},{"name":"Zhoukou","country":"China","latitude":33.625,"longitude":114.6418},{"name":"Ganzhou","country":"China","latitude":25.8292,"longitude":114.9336},{"name":"Heze","country":"China","latitude":35.2333,"longitude":115.4333},{"name":"Quanzhou","country":"China","latitude":24.9139,"longitude":118.5858},{"name":"Jining","country":"China","latitude":35.4,"longitude":116.5667},{"name":"Shenyang","country":"China","latitude":41.8025,"longitude":123.4281},{"name":"Fuyang","country":"China","latitude":32.8986,"longitude":115.8045},{"name":"Shangqiu","country":"China","latitude":34.4259,"longitude":115.6467},{"name":"Dalian","country":"China","latitude":38.9,"longitude":121.6}]},{"name":"Christmas Island","iso2":"CX","iso3":"CXR","cities":[{"name":"Flying Fish Cove","country":"Christmas Island","latitude":-10.4217,"longitude":105.6781}]},{"name":"Colombia","iso2":"CO","iso3":"COL","cities":[{"name":"Bogota","country":"Colombia","latitude":4.6097,"longitude":-74.0817},{"name":"Cali","country":"Colombia","latitude":3.44,"longitude":-76.5197},{"name":"Medellin","country":"Colombia","latitude":6.2502,"longitude":-75.5676},{"name":"Barranquilla","country":"Colombia","latitude":10.9833,"longitude":-74.8019},{"name":"Cartagena","country":"Colombia","latitude":10.3997,"longitude":-75.5144},{"name":"Bucaramanga","country":"Colombia","latitude":7.1186,"longitude":-73.1161},{"name":"Cucuta","country":"Colombia","latitude":7.9075,"longitude":-72.5047},{"name":"Villavicencio","country":"Colombia","latitude":4.1425,"longitude":-73.6294},{"name":"Pereira","country":"Colombia","latitude":4.8143,"longitude":-75.6946},{"name":"Bello","country":"Colombia","latitude":6.3319,"longitude":-75.5581},{"name":"Ibague","country":"Colombia","latitude":4.4378,"longitude":-75.2006},{"name":"Valledupar","country":"Colombia","latitude":10.4603,"longitude":-73.2597},{"name":"Soacha","country":"Colombia","latitude":4.5781,"longitude":-74.2144},{"name":"Santa Marta","country":"Colombia","latitude":11.2361,"longitude":-74.2017},{"name":"Manizales","country":"Colombia","latitude":5.0675,"longitude":-75.51},{"name":"Buenaventura","country":"Colombia","latitude":3.8772,"longitude":-77.0267},{"name":"Pasto","country":"Colombia","latitude":1.21,"longitude":-77.2747},{"name":"Monteria","country":"Colombia","latitude":8.76,"longitude":-75.8856},{"name":"Neiva","country":"Colombia","latitude":2.9275,"longitude":-75.2875},{"name":"Palmira","country":"Colombia","latitude":3.5347,"longitude":-76.2956},{"name":"Fontibon","country":"Colombia","latitude":4.6734,"longitude":-74.1448},{"name":"Usme","country":"Colombia","latitude":4.471,"longitude":-74.1253},{"name":"Armenia","country":"Colombia","latitude":4.5389,"longitude":-75.6725},{"name":"Popayan","country":"Colombia","latitude":2.4542,"longitude":-76.6092},{"name":"Barrancabermeja","country":"Colombia","latitude":7.0675,"longitude":-73.8472},{"name":"Sincelejo","country":"Colombia","latitude":9.2994,"longitude":-75.3958},{"name":"Itagui","country":"Colombia","latitude":6.1726,"longitude":-75.6096},{"name":"Floridablanca","country":"Colombia","latitude":7.0697,"longitude":-73.0978},{"name":"Riohacha","country":"Colombia","latitude":11.5442,"longitude":-72.9069},{"name":"Tulua","country":"Colombia","latitude":4.0847,"longitude":-76.1986}]},{"name":"Comoros","iso2":"KM","iso3":"COM","cities":[{"name":"Moroni","country":"Comoros","latitude":-11.7036,"longitude":43.2536},{"name":"Mutsamudu","country":"Comoros","latitude":-12.1675,"longitude":44.3939},{"name":"Mandza","country":"Comoros","latitude":-11.4167,"longitude":43.3},{"name":"Fomboni","country":"Comoros","latitude":-12.2822,"longitude":43.7419},{"name":"Domoni","country":"Comoros","latitude":-12.2586,"longitude":44.5303},{"name":"Tsimbeo","country":"Comoros","latitude":-12.2,"longitude":44.4667},{"name":"Ongoujou","country":"Comoros","latitude":-12.31,"longitude":44.5139},{"name":"Adda-Doueni","country":"Comoros","latitude":-12.3,"longitude":44.5},{"name":"Sima","country":"Comoros","latitude":-12.1992,"longitude":44.2742},{"name":"Ouani","country":"Comoros","latitude":-12.135,"longitude":44.4275},{"name":"Kourani","country":"Comoros","latitude":-11.3833,"longitude":43.2833},{"name":"Bazimini","country":"Comoros","latitude":-12.1792,"longitude":44.4489},{"name":"Iconi","country":"Comoros","latitude":-11.7453,"longitude":43.2328}]},{"name":"Congo (Brazzaville)","iso2":"CG","iso3":"COG","cities":[{"name":"Brazzaville","country":"Congo (Brazzaville)","latitude":-4.2694,"longitude":15.2711},{"name":"Pointe-Noire","country":"Congo (Brazzaville)","latitude":-4.7975,"longitude":11.8503},{"name":"Tchibota","country":"Congo (Brazzaville)","latitude":-4.1794,"longitude":11.3731},{"name":"Dolisie","country":"Congo (Brazzaville)","latitude":-4.2006,"longitude":12.6792},{"name":"Oyo","country":"Congo (Brazzaville)","latitude":-1.1603,"longitude":15.9736},{"name":"Betou","country":"Congo (Brazzaville)","latitude":3.0594,"longitude":18.5142},{"name":"Ouesso","country":"Congo (Brazzaville)","latitude":1.6106,"longitude":16.0514},{"name":"Impfondo","country":"Congo (Brazzaville)","latitude":1.6186,"longitude":18.0622},{"name":"Madingou","country":"Congo (Brazzaville)","latitude":-4.1642,"longitude":13.5517},{"name":"Owando","country":"Congo (Brazzaville)","latitude":-0.4833,"longitude":15.8975},{"name":"Hinda","country":"Congo (Brazzaville)","latitude":-4.6167,"longitude":12.0406},{"name":"Sibiti","country":"Congo (Brazzaville)","latitude":-3.685,"longitude":13.3511},{"name":"Mossaka","country":"Congo (Brazzaville)","latitude":-1.2258,"longitude":16.7947},{"name":"Bouansa","country":"Congo (Brazzaville)","latitude":-4.2186,"longitude":13.7617},{"name":"Loutete","country":"Congo (Brazzaville)","latitude":-4.2972,"longitude":13.8556},{"name":"Gamboma","country":"Congo (Brazzaville)","latitude":-1.8711,"longitude":15.8781},{"name":"Djambala","country":"Congo (Brazzaville)","latitude":-2.54,"longitude":14.7519},{"name":"Mouyondzi","country":"Congo (Brazzaville)","latitude":-3.9956,"longitude":13.9219},{"name":"Mindouli","country":"Congo (Brazzaville)","latitude":-4.2747,"longitude":14.3575},{"name":"Makoua","country":"Congo (Brazzaville)","latitude":-0.0067,"longitude":15.6181},{"name":"Loudima Poste","country":"Congo (Brazzaville)","latitude":-4.1122,"longitude":13.06},{"name":"Mossendjo","country":"Congo (Brazzaville)","latitude":-2.9453,"longitude":12.7156},{"name":"Boloso","country":"Congo (Brazzaville)","latitude":2.0333,"longitude":15.2},{"name":"Kinkala","country":"Congo (Brazzaville)","latitude":-4.3567,"longitude":14.7589},{"name":"Ewo","country":"Congo (Brazzaville)","latitude":-0.8742,"longitude":14.8167},{"name":"Etoumbi","country":"Congo (Brazzaville)","latitude":0.0208,"longitude":14.8933},{"name":"Souanke","country":"Congo (Brazzaville)","latitude":2.0833,"longitude":14.1333},{"name":"Boundji","country":"Congo (Brazzaville)","latitude":-1.0264,"longitude":15.3478},{"name":"Dongou","country":"Congo (Brazzaville)","latitude":2.0447,"longitude":18.0525},{"name":"Kelle","country":"Congo (Brazzaville)","latitude":-0.0608,"longitude":14.4878}]},{"name":"Congo (Kinshasa)","iso2":"CD","iso3":"COD","cities":[{"name":"Kinshasa","country":"Congo (Kinshasa)","latitude":-4.3233,"longitude":15.3081},{"name":"Mbuji-Mayi","country":"Congo (Kinshasa)","latitude":-6.1209,"longitude":23.5967},{"name":"Kananga","country":"Congo (Kinshasa)","latitude":-5.8961,"longitude":22.4167},{"name":"Lubumbashi","country":"Congo (Kinshasa)","latitude":-11.6642,"longitude":27.4828},{"name":"Kisangani","country":"Congo (Kinshasa)","latitude":0.5153,"longitude":25.1911},{"name":"Bukavu","country":"Congo (Kinshasa)","latitude":-2.4908,"longitude":28.8428},{"name":"Tshikapa","country":"Congo (Kinshasa)","latitude":-6.4167,"longitude":20.8},{"name":"Goma","country":"Congo (Kinshasa)","latitude":-1.6794,"longitude":29.2336},{"name":"Uvira","country":"Congo (Kinshasa)","latitude":-3.3953,"longitude":29.1378},{"name":"Likasi","country":"Congo (Kinshasa)","latitude":-10.9833,"longitude":26.7333},{"name":"Bunia","country":"Congo (Kinshasa)","latitude":1.5667,"longitude":30.25},{"name":"Kolwezi","country":"Congo (Kinshasa)","latitude":-10.7167,"longitude":25.4667},{"name":"Mbandaka","country":"Congo (Kinshasa)","latitude":0.0486,"longitude":18.2603},{"name":"Matadi","country":"Congo (Kinshasa)","latitude":-5.8167,"longitude":13.4833},{"name":"Kikwit","country":"Congo (Kinshasa)","latitude":-5.0333,"longitude":18.8167},{"name":"Kisenzi","country":"Congo (Kinshasa)","latitude":-4.413,"longitude":15.3464},{"name":"Beni","country":"Congo (Kinshasa)","latitude":0.4911,"longitude":29.4731},{"name":"Butembo","country":"Congo (Kinshasa)","latitude":0.1251,"longitude":29.299},{"name":"Gbadolite","country":"Congo (Kinshasa)","latitude":4.275,"longitude":21.0},{"name":"Mwene-Ditu","country":"Congo (Kinshasa)","latitude":-7.0,"longitude":23.45},{"name":"Isiro","country":"Congo (Kinshasa)","latitude":2.7833,"longitude":27.6167},{"name":"Kindu","country":"Congo (Kinshasa)","latitude":-2.95,"longitude":25.9167},{"name":"Boma","country":"Congo (Kinshasa)","latitude":-5.85,"longitude":13.05},{"name":"Kamina","country":"Congo (Kinshasa)","latitude":-8.7351,"longitude":24.998},{"name":"Aketi","country":"Congo (Kinshasa)","latitude":2.74,"longitude":23.78},{"name":"Kalemie","country":"Congo (Kinshasa)","latitude":-5.9475,"longitude":29.1947},{"name":"Wamba","country":"Congo (Kinshasa)","latitude":2.1442,"longitude":27.9929},{"name":"Gandajika","country":"Congo (Kinshasa)","latitude":-6.75,"longitude":23.9667},{"name":"Bandundu","country":"Congo (Kinshasa)","latitude":-3.3167,"longitude":17.3833},{"name":"Gemena","country":"Congo (Kinshasa)","latitude":3.25,"longitude":19.7667}]},{"name":"Cook Islands","iso2":"CK","iso3":"COK","cities":[{"name":"Avarua","country":"Cook Islands","latitude":-21.207,"longitude":-159.771}]},{"name":"Costa Rica","iso2":"CR","iso3":"CRI","cities":[{"name":"San Jose","country":"Costa Rica","latitude":9.9327,"longitude":-84.0796},{"name":"San Marcos","country":"Costa Rica","latitude":10.6172,"longitude":-84.5147},{"name":"San Ramon","country":"Costa Rica","latitude":10.2203,"longitude":-84.5889},{"name":"Puntarenas","country":"Costa Rica","latitude":9.9773,"longitude":-84.8346},{"name":"Santa Cruz","country":"Costa Rica","latitude":10.2667,"longitude":-85.65},{"name":"Puerto Limon","country":"Costa Rica","latitude":10.0022,"longitude":-83.084},{"name":"Nicoya","country":"Costa Rica","latitude":10.2,"longitude":-85.4325},{"name":"Liberia","country":"Costa Rica","latitude":10.6296,"longitude":-85.4383},{"name":"Mora","country":"Costa Rica","latitude":10.0128,"longitude":-84.0222},{"name":"Guacimo","country":"Costa Rica","latitude":10.2124,"longitude":-83.6865},{"name":"San Rafael","country":"Costa Rica","latitude":10.0689,"longitude":-84.4258},{"name":"Naranjo","country":"Costa Rica","latitude":10.1,"longitude":-84.3833},{"name":"Coto Brus","country":"Costa Rica","latitude":8.8947,"longitude":-82.9161},{"name":"Santo Domingo","country":"Costa Rica","latitude":9.9833,"longitude":-84.0833},{"name":"Matina","country":"Costa Rica","latitude":10.0855,"longitude":-83.2834},{"name":"San Isidro","country":"Costa Rica","latitude":9.3403,"longitude":-83.7338},{"name":"Alajuela","country":"Costa Rica","latitude":10.0165,"longitude":-84.2139},{"name":"Quesada","country":"Costa Rica","latitude":10.3236,"longitude":-84.4269},{"name":"Palmares","country":"Costa Rica","latitude":10.0483,"longitude":-84.4411},{"name":"Santa Barbaraa","country":"Costa Rica","latitude":10.0358,"longitude":-84.1611},{"name":"Guapiles","country":"Costa Rica","latitude":10.2141,"longitude":-83.7918},{"name":"Poas","country":"Costa Rica","latitude":10.0833,"longitude":-84.25},{"name":"Esparza","country":"Costa Rica","latitude":9.9908,"longitude":-84.6672},{"name":"Paraiso","country":"Costa Rica","latitude":9.8432,"longitude":-83.8463},{"name":"Turrialba","country":"Costa Rica","latitude":9.8897,"longitude":-83.6807},{"name":"Desamparados","country":"Costa Rica","latitude":9.8967,"longitude":-84.0706},{"name":"Canas","country":"Costa Rica","latitude":10.4308,"longitude":-85.0972},{"name":"Siquirres","country":"Costa Rica","latitude":10.0901,"longitude":-83.5016},{"name":"Curridabat","country":"Costa Rica","latitude":9.916,"longitude":-84.0348},{"name":"San Pablo","country":"Costa Rica","latitude":10.0,"longitude":-84.0833}]},{"name":"Croatia","iso2":"HR","iso3":"HRV","cities":[{"name":"Zagreb","country":"Croatia","latitude":45.8131,"longitude":15.9772},{"name":"Split","country":"Croatia","latitude":43.51,"longitude":16.44},{"name":"Rijeka","country":"Croatia","latitude":45.3333,"longitude":14.4333},{"name":"Osijek","country":"Croatia","latitude":45.5603,"longitude":18.6703},{"name":"Zadar","country":"Croatia","latitude":44.1142,"longitude":15.2275},{"name":"Sesvete","country":"Croatia","latitude":45.8271,"longitude":16.1112},{"name":"Slavonski Brod","country":"Croatia","latitude":45.1553,"longitude":18.0144},{"name":"Pula","country":"Croatia","latitude":44.8703,"longitude":13.8456},{"name":"Karlovac","country":"Croatia","latitude":45.4931,"longitude":15.5558},{"name":"Varazdin","country":"Croatia","latitude":46.3081,"longitude":16.3378},{"name":"Sibenik","country":"Croatia","latitude":43.7339,"longitude":15.8956},{"name":"Dubrovnik","country":"Croatia","latitude":42.6403,"longitude":18.1083},{"name":"Sisak","country":"Croatia","latitude":45.4872,"longitude":16.3761},{"name":"Bjelovar","country":"Croatia","latitude":45.8989,"longitude":16.8422},{"name":"Vinkovci","country":"Croatia","latitude":45.2833,"longitude":18.8},{"name":"Velika Gorica","country":"Croatia","latitude":45.7,"longitude":16.0667},{"name":"Cakovec","country":"Croatia","latitude":46.3833,"longitude":16.4333},{"name":"Zapresic","country":"Croatia","latitude":45.85,"longitude":15.8},{"name":"Solin","country":"Croatia","latitude":43.5394,"longitude":16.4831},{"name":"Dakovo","country":"Croatia","latitude":45.3,"longitude":18.4},{"name":"Pozega","country":"Croatia","latitude":45.3314,"longitude":17.6744},{"name":"Koprivnica","country":"Croatia","latitude":46.15,"longitude":16.8167},{"name":"Vukovar","country":"Croatia","latitude":45.35,"longitude":19.0033},{"name":"Krizevci","country":"Croatia","latitude":46.0333,"longitude":16.5333},{"name":"Samobor","country":"Croatia","latitude":45.8011,"longitude":15.711},{"name":"Porec","country":"Croatia","latitude":45.2272,"longitude":13.5952},{"name":"Viskovo","country":"Croatia","latitude":45.3759,"longitude":14.3789},{"name":"Metkovic","country":"Croatia","latitude":43.05,"longitude":17.65},{"name":"Nasice","country":"Croatia","latitude":45.4833,"longitude":18.1},{"name":"Omis","country":"Croatia","latitude":43.4458,"longitude":16.6883}]},{"name":"Cuba","iso2":"CU","iso3":"CUB","cities":[{"name":"Havana","country":"Cuba","latitude":23.1367,"longitude":-82.3589},{"name":"Santiago de Cuba","country":"Cuba","latitude":20.0217,"longitude":-75.8294},{"name":"Holguin","country":"Cuba","latitude":20.8872,"longitude":-76.2631},{"name":"Camaguey","country":"Cuba","latitude":21.3786,"longitude":-77.9186},{"name":"Santa Clara","country":"Cuba","latitude":22.4067,"longitude":-79.9531},{"name":"Bayamo","country":"Cuba","latitude":20.3817,"longitude":-76.6428},{"name":"Guantanamo","country":"Cuba","latitude":20.1383,"longitude":-75.2061},{"name":"Carlos Manuel de Cespedes","country":"Cuba","latitude":21.5767,"longitude":-78.2775},{"name":"Arroyo Naranjo","country":"Cuba","latitude":23.0436,"longitude":-82.3328},{"name":"Las Tunas","country":"Cuba","latitude":20.9667,"longitude":-76.95},{"name":"Pinar del Rio","country":"Cuba","latitude":22.4122,"longitude":-83.6719},{"name":"Cienfuegos","country":"Cuba","latitude":22.1456,"longitude":-80.4364},{"name":"San Miguel del Padron","country":"Cuba","latitude":23.0964,"longitude":-82.3267},{"name":"Matanzas","country":"Cuba","latitude":23.0494,"longitude":-81.5736},{"name":"Manzanillo","country":"Cuba","latitude":20.3397,"longitude":-77.1086},{"name":"La Lisa","country":"Cuba","latitude":23.0247,"longitude":-82.4631},{"name":"Ciego de Avila","country":"Cuba","latitude":21.8481,"longitude":-78.7631},{"name":"Sancti Spiritus","country":"Cuba","latitude":21.9339,"longitude":-79.4439},{"name":"Marianao","country":"Cuba","latitude":23.0833,"longitude":-82.4333},{"name":"Centro Habana","country":"Cuba","latitude":23.1348,"longitude":-82.3701},{"name":"Guanabacoa","country":"Cuba","latitude":23.1252,"longitude":-82.3007},{"name":"Cerro","country":"Cuba","latitude":23.0881,"longitude":-82.395},{"name":"Palma Soriano","country":"Cuba","latitude":20.2139,"longitude":-75.9919},{"name":"Contramaestre","country":"Cuba","latitude":20.3,"longitude":-76.2506},{"name":"Mayari","country":"Cuba","latitude":20.6552,"longitude":-75.6764},{"name":"Puerto Padre","country":"Cuba","latitude":21.195,"longitude":-76.6017},{"name":"San Luis","country":"Cuba","latitude":20.1881,"longitude":-75.8486},{"name":"Jaguey Grande","country":"Cuba","latitude":22.5292,"longitude":-81.1325},{"name":"Consolacion del Sur","country":"Cuba","latitude":22.5083,"longitude":-83.5172},{"name":"Cardenas","country":"Cuba","latitude":23.0428,"longitude":-81.2036}]},{"name":"Curaçao","iso2":"CW","iso3":"CUW","cities":[{"name":"Willemstad","country":"Curaçao","latitude":12.108,"longitude":-68.935}]},{"name":"Cyprus","iso2":"CY","iso3":"CYP","cities":[{"name":"Nicosia","country":"Cyprus","latitude":35.1725,"longitude":33.365},{"name":"Limassol","country":"Cyprus","latitude":34.675,"longitude":33.0443},{"name":"Paphos","country":"Cyprus","latitude":34.7761,"longitude":32.4265},{"name":"Larnaca","country":"Cyprus","latitude":34.9296,"longitude":33.6295},{"name":"Famagusta","country":"Cyprus","latitude":35.1167,"longitude":33.95},{"name":"Kyrenia","country":"Cyprus","latitude":35.3403,"longitude":33.3192},{"name":"Morfou","country":"Cyprus","latitude":35.1987,"longitude":32.9934},{"name":"Kato Polemidia","country":"Cyprus","latitude":34.6931,"longitude":32.9992},{"name":"Aradippou","country":"Cyprus","latitude":34.9478,"longitude":33.5881},{"name":"Latsia","country":"Cyprus","latitude":35.0968,"longitude":33.3773},{"name":"Paralimni","country":"Cyprus","latitude":35.0387,"longitude":33.9862},{"name":"Agios Athanasios","country":"Cyprus","latitude":34.7087,"longitude":33.0504},{"name":"Mesa Geitonia","country":"Cyprus","latitude":34.7024,"longitude":33.0453},{"name":"Germasogeia","country":"Cyprus","latitude":34.7181,"longitude":33.0856},{"name":"Ypsonas","country":"Cyprus","latitude":34.6911,"longitude":32.9551},{"name":"Dali","country":"Cyprus","latitude":35.024,"longitude":33.4226}]},{"name":"Czechia","iso2":"CZ","iso3":"CZE","cities":[{"name":"Prague","country":"Czechia","latitude":50.0875,"longitude":14.4214},{"name":"Brno","country":"Czechia","latitude":49.1953,"longitude":16.6083},{"name":"Ostrava","country":"Czechia","latitude":49.8356,"longitude":18.2925},{"name":"Plzen","country":"Czechia","latitude":49.7414,"longitude":13.3825},{"name":"Liberec","country":"Czechia","latitude":50.7667,"longitude":15.05},{"name":"Olomouc","country":"Czechia","latitude":49.5939,"longitude":17.2508},{"name":"Ceske Budejovice","country":"Czechia","latitude":48.9747,"longitude":14.4747},{"name":"Hradec Kralove","country":"Czechia","latitude":50.2092,"longitude":15.8319},{"name":"Pardubice","country":"Czechia","latitude":50.0386,"longitude":15.7792},{"name":"Usti nad Labem","country":"Czechia","latitude":50.6592,"longitude":14.0417},{"name":"Zlin","country":"Czechia","latitude":49.2331,"longitude":17.6669},{"name":"Kladno","country":"Czechia","latitude":50.1431,"longitude":14.1053},{"name":"Havirov","country":"Czechia","latitude":49.7778,"longitude":18.4228},{"name":"Poruba","country":"Czechia","latitude":49.825,"longitude":18.1711},{"name":"Most","country":"Czechia","latitude":50.5031,"longitude":13.6367},{"name":"Opava","country":"Czechia","latitude":49.9381,"longitude":17.9044},{"name":"Jihlava","country":"Czechia","latitude":49.4003,"longitude":15.5906},{"name":"Frydek-Mistek","country":"Czechia","latitude":49.6881,"longitude":18.3536},{"name":"Teplice","country":"Czechia","latitude":50.6333,"longitude":13.8167},{"name":"Karlovy Vary","country":"Czechia","latitude":50.2306,"longitude":12.8725},{"name":"Karvina","country":"Czechia","latitude":49.8542,"longitude":18.5428},{"name":"Mlada Boleslav","country":"Czechia","latitude":50.4125,"longitude":14.9064},{"name":"Chomutov","country":"Czechia","latitude":50.4628,"longitude":13.4111},{"name":"Decin","country":"Czechia","latitude":50.7736,"longitude":14.1961},{"name":"Jablonec nad Nisou","country":"Czechia","latitude":50.7278,"longitude":15.17},{"name":"Prostejov","country":"Czechia","latitude":49.4722,"longitude":17.1106},{"name":"Prerov","country":"Czechia","latitude":49.4556,"longitude":17.4511},{"name":"Ceska Lipa","country":"Czechia","latitude":50.6856,"longitude":14.5377},{"name":"Trebic","country":"Czechia","latitude":49.215,"longitude":15.8817},{"name":"Tabor","country":"Czechia","latitude":49.4145,"longitude":14.6578}]},{"name":"Côte d’Ivoire","iso2":"CI","iso3":"CIV","cities":[{"name":"Abidjan","country":"Côte d’Ivoire","latitude":5.3364,"longitude":-4.0267},{"name":"Yopougon","country":"Côte d’Ivoire","latitude":5.3347,"longitude":-4.07},{"name":"Abobo","country":"Côte d’Ivoire","latitude":5.4189,"longitude":-4.0206},{"name":"Bouake","country":"Côte d’Ivoire","latitude":7.6833,"longitude":-5.0331},{"name":"Cocody","country":"Côte d’Ivoire","latitude":5.35,"longitude":-3.9667},{"name":"Port-Bouet","country":"Côte d’Ivoire","latitude":5.2667,"longitude":-3.9},{"name":"Korhogo","country":"Côte d’Ivoire","latitude":9.4578,"longitude":-5.6294},{"name":"Daloa","country":"Côte d’Ivoire","latitude":6.8667,"longitude":-6.45},{"name":"Koumassi","country":"Côte d’Ivoire","latitude":5.3,"longitude":-3.95},{"name":"San-Pedro","country":"Côte d’Ivoire","latitude":4.7333,"longitude":-6.6333},{"name":"Adjame","country":"Côte d’Ivoire","latitude":5.3648,"longitude":-4.0237},{"name":"Yamoussoukro","country":"Côte d’Ivoire","latitude":6.8161,"longitude":-5.2742},{"name":"Attiecoube","country":"Côte d’Ivoire","latitude":5.3453,"longitude":-4.035},{"name":"Divo","country":"Côte d’Ivoire","latitude":5.8372,"longitude":-5.3572},{"name":"Gagnoa","country":"Côte d’Ivoire","latitude":6.1333,"longitude":-5.9333},{"name":"Soubre","country":"Côte d’Ivoire","latitude":5.7836,"longitude":-6.5939},{"name":"Man","country":"Côte d’Ivoire","latitude":7.4125,"longitude":-7.5536},{"name":"Duekoue","country":"Côte d’Ivoire","latitude":6.7348,"longitude":-7.3375},{"name":"Marcory","country":"Côte d’Ivoire","latitude":5.3,"longitude":-3.9833},{"name":"Bouafle","country":"Côte d’Ivoire","latitude":6.9903,"longitude":-5.7442},{"name":"Bingerville","country":"Côte d’Ivoire","latitude":5.35,"longitude":-3.9},{"name":"Guiglo","country":"Côte d’Ivoire","latitude":6.5436,"longitude":-7.4933},{"name":"Abengourou","country":"Côte d’Ivoire","latitude":6.7297,"longitude":-3.4964},{"name":"Ferkessedougou","country":"Côte d’Ivoire","latitude":9.5928,"longitude":-5.1944},{"name":"Adzope","country":"Côte d’Ivoire","latitude":6.1035,"longitude":-3.8648},{"name":"Meagui","country":"Côte d’Ivoire","latitude":5.3973,"longitude":-6.5499},{"name":"Bondoukou","country":"Côte d’Ivoire","latitude":8.04,"longitude":-2.8},{"name":"Dabou","country":"Côte d’Ivoire","latitude":5.3256,"longitude":-4.3767},{"name":"Sinfra","country":"Côte d’Ivoire","latitude":6.621,"longitude":-5.9114},{"name":"Agboville","country":"Côte d’Ivoire","latitude":5.928,"longitude":-4.2132}]},{"name":"Denmark","iso2":"DK","iso3":"DNK","cities":[{"name":"Copenhagen","country":"Denmark","latitude":55.6761,"longitude":12.5689},{"name":"Aarhus","country":"Denmark","latitude":56.1564,"longitude":10.2097},{"name":"Odense","country":"Denmark","latitude":55.4,"longitude":10.3833},{"name":"Aalborg","country":"Denmark","latitude":57.05,"longitude":9.9167},{"name":"Esbjerg","country":"Denmark","latitude":55.4708,"longitude":8.4514},{"name":"Randers","country":"Denmark","latitude":56.4569,"longitude":10.0392},{"name":"Horsens","country":"Denmark","latitude":55.8619,"longitude":9.8519},{"name":"Kolding","country":"Denmark","latitude":55.4908,"longitude":9.4722},{"name":"Vejle","country":"Denmark","latitude":55.7083,"longitude":9.5333},{"name":"Roskilde","country":"Denmark","latitude":55.6417,"longitude":12.0808},{"name":"Herning","country":"Denmark","latitude":56.1361,"longitude":8.9767},{"name":"Silkeborg","country":"Denmark","latitude":56.1667,"longitude":9.55},{"name":"Horsholm","country":"Denmark","latitude":55.8786,"longitude":12.4992},{"name":"Helsingor","country":"Denmark","latitude":56.036,"longitude":12.6106},{"name":"Naestved","country":"Denmark","latitude":55.2333,"longitude":11.7667},{"name":"Fredericia","country":"Denmark","latitude":55.5644,"longitude":9.7597},