city,country,iso2,latitude,longitude,time_zone,population
Tokyo,Japan,JP,35.685,139.7514,Asia/Tokyo,37785000
Jakarta,Indonesia,ID,-6.1753,106.8269,Asia/Jakarta,33756000
Delhi,India,IN,28.66,77.23,Asia/Kolkata,32226000
Chongqing,China,CN,29.55,106.5069,Asia/Shanghai,32054159
Guangzhou,China,CN,23.13,113.26,Asia/Shanghai,26940000
Mumbai,India,IN,19.0758,72.8775,Asia/Kolkata,24973000
Manila,Philippines,PH,14.5958,120.9772,Asia/Manila,24922000
Shanghai,China,CN,31.2325,121.4692,Asia/Shanghai,24870895
São Paulo,Brazil,BR,-23.5504,-46.6339,America/Sao_Paulo,23086000
Seoul,"Korea, South",KR,37.56,126.99,Asia/Seoul,23016000
Beijing,China,CN,39.904,116.4075,Asia/Shanghai,21893095
Mexico City,Mexico,MX,19.3538,-99.1359,America/Mexico_City,21804000
Kolkāta,India,IN,22.5675,88.37,Asia/Kolkata,21747000
Chengdu,China,CN,30.66,104.0633,Asia/Shanghai,20937757
Cairo,Egypt,EG,30.0444,31.2358,Africa/Cairo,20296000
Karachi,Pakistan,PK,24.86,67.01,Asia/Karachi,20249000
New York,United States,US,40.6943,-73.9249,America/New_York,19268388
Dhaka,Bangladesh,BD,23.7289,90.3944,Asia/Dhaka,19134000
Bangkok,Thailand,TH,13.75,100.5167,Asia/Bangkok,18007000
Shenzhen,China,CN,22.5467,114.0544,Asia/Shanghai,17619000
Moscow,Russia,RU,55.7506,37.6175,Europe/Moscow,17332000
Kinshasa,Congo (Kinshasa),CD,-4.3233,15.3081,Africa/Kinshasa,17071000
Buenos Aires,Argentina,AR,-34.5997,-58.3819,America/Argentina/Buenos_Aires,16710000
Lagos,Nigeria,NG,6.4561,3.3936,Africa/Lagos,16637000
Istanbul,Turkey,TR,41.01,28.9603,Europe/Istanbul,15519267
Ho Chi Minh City,Vietnam,VN,10.7756,106.7019,Asia/Ho_Chi_Minh,15136000
Ōsaka,Japan,JP,34.6938,135.5021,Asia/Tokyo,15126000
Tehran,Iran,IR,35.6889,51.3897,Asia/Tehran,14148000
Tianjin,China,CN,39.1467,117.2056,Asia/Shanghai,13866009
Lahore,Pakistan,PK,31.5497,74.3436,Asia/Karachi,13004135
Suzhou,China,CN,31.3,120.6194,Asia/Shanghai,12748262
Rio de Janeiro,Brazil,BR,-22.9111,-43.2056,America/Sao_Paulo,12592000
Wuhan,China,CN,30.595,114.2975,Asia/Shanghai,12447718
Chennai,India,IN,13.0825,80.275,Asia/Kolkata,12395000
Xi’an,China,CN,34.2611,108.9422,Asia/Shanghai,12328000
Los Angeles,United States,US,34.1141,-118.4068,America/Los_Angeles,11984083
Hangzhou,China,CN,30.25,120.1675,Asia/Shanghai,11936010
Baoding,China,CN,38.8671,115.4845,Asia/Shanghai,11544036
London,United Kingdom,GB,51.5072,-0.1275,Europe/London,11262000
Paris,France,FR,48.8567,2.3522,Europe/Paris,11060000
Linyi,China,CN,35.1041,118.3502,Asia/Shanghai,11018365
Dongguan,China,CN,23.0475,113.7493,Asia/Shanghai,10646000
Harbin,China,CN,45.75,126.6333,Asia/Shanghai,10635971
Hyderābād,India,IN,17.3617,78.4747,Asia/Kolkata,10494000
Lima,Peru,PE,-12.06,-77.0375,America/Lima,10320000
Bogotá,Colombia,CO,4.6097,-74.0817,America/Bogota,10085000
Qingdao,China,CN,36.1167,120.4,Asia/Shanghai,10071722
Nanyang,China,CN,32.9987,112.5292,Asia/Shanghai,9713112
Foshan,China,CN,23.0292,113.1056,Asia/Shanghai,9498863
Nanjing,China,CN,32.0608,118.7789,Asia/Shanghai,9314685
Jinan,China,CN,36.6667,116.9833,Asia/Shanghai,9202432
Nagoya,Japan,JP,35.1814,136.9064,Asia/Tokyo,9197000
Tongshan,China,CN,34.261,117.1859,Asia/Shanghai,9083790
Luanda,Angola,AO,-8.8383,13.2344,Africa/Luanda,9051000
Zhoukou,China,CN,33.625,114.6418,Asia/Shanghai,9026015
Ganzhou,China,CN,25.8292,114.9336,Asia/Shanghai,8970014
Kuala Lumpur,Malaysia,MY,3.1478,101.6953,Asia/Kuala_Lumpur,8911000
Heze,China,CN,35.2333,115.4333,Asia/Shanghai,8795939
Quanzhou,China,CN,24.9139,118.5858,Asia/Shanghai,8782285
Hanoi,Vietnam,VN,21.0245,105.8412,Asia/Bangkok,8717600
Chicago,United States,US,41.8375,-87.6866,America/Chicago,8609571
Bangalore,India,IN,12.9791,77.5913,Asia/Kolkata,8443675
Jining,China,CN,35.4,116.5667,Asia/Shanghai,8357897
Shenyang,China,CN,41.8025,123.4281,Asia/Shanghai,8294000
Pune,India,IN,18.5211,73.8553,Asia/Kolkata,8231000
Fuyang,China,CN,32.8986,115.8045,Asia/Shanghai,8200264
Baghdad,Iraq,IQ,33.3153,44.3661,Asia/Baghdad,8126755
Ahmedabad,India,IN,23.0219,72.5797,Asia/Kolkata,8009000
Dar es Salaam,Tanzania,TZ,-6.8161,39.2803,Africa/Dar_es_Salaam,7962000
Khartoum,Sudan,SD,15.6031,32.5265,Africa/Khartoum,7869000
Shangqiu,China,CN,34.4259,115.6467,Asia/Shanghai,7816831
Dalian,China,CN,38.9,121.6,Asia/Shanghai,7450785
Hong Kong,Hong Kong,HK,22.2783,114.1586,Asia/Hong_Kong,7450000
Cangzhou,China,CN,38.3037,116.8452,Asia/Shanghai,7300783
Riyadh,Saudi Arabia,SA,24.65,46.71,Asia/Riyadh,7237000
Bandung,Indonesia,ID,-6.9218,107.6071,Asia/Jakarta,7203000
Santiago,Chile,CL,-33.4375,-70.65,America/Santiago,7171000
Xingtai,China,CN,37.0659,114.4753,Asia/Shanghai,7111106
Zhumadian,China,CN,32.9773,114.0253,Asia/Shanghai,7008427
Zhanjiang,China,CN,21.1967,110.4031,Asia/Shanghai,6981236
Bijie,China,CN,27.3019,105.2863,Asia/Shanghai,6899636
Rangoon,Burma,MM,16.8053,96.1561,Asia/Yangon,6874000
Yancheng,China,CN,33.35,120.1569,Asia/Shanghai,6709629
Hengyang,China,CN,26.8968,112.5857,Asia/Shanghai,6645243
Zunyi,China,CN,27.705,106.9336,Asia/Shanghai,6606675
Shaoyang,China,CN,27.2418,111.4725,Asia/Shanghai,6563520
Surabaya,Indonesia,ID,-7.2463,112.7378,Asia/Jakarta,6556000
Sūrat,India,IN,21.205,72.84,Asia/Kolkata,6538000
Shangrao,China,CN,28.4419,117.9633,Asia/Shanghai,6491088
Miami,United States,US,25.784,-80.2101,America/New_York,6391670
Huanggang,China,CN,30.45,114.875,Asia/Shanghai,6333000
Maoming,China,CN,21.6618,110.9178,Asia/Shanghai,6313200
Nangandao,China,CN,35.2992,113.8851,Asia/Shanghai,6251929
Xinyang,China,CN,32.1264,114.0672,Asia/Shanghai,6234401
Houston,United States,US,29.786,-95.3885,America/Chicago,6227666
Madrid,Spain,ES,40.4169,-3.7033,Europe/Madrid,6211000
Singapore,Singapore,SG,1.3,103.8,Asia/Singapore,5983000
Dallas,United States,US,32.7935,-96.7667,America/Chicago,5968322
Prayagraj,India,IN,25.45,81.85,Asia/Kolkata,5954391
Liaocheng,China,CN,36.45,115.9833,Asia/Shanghai,5952128
Yulin,China,CN,22.6293,110.1507,Asia/Shanghai,5849700
Changde,China,CN,29.0397,111.6839,Asia/Shanghai,5827200
Ankara,Turkey,TR,39.9358,32.8387,Europe/Istanbul,5803482
Yueyang,China,CN,29.3647,113.1309,Asia/Shanghai,5797100
Philadelphia,United States,US,40.0077,-75.1339,America/New_York,5782653
Douala,Cameroon,CM,4.05,9.7,Africa/Douala,5768400
Qujing,China,CN,25.5102,103.8029,Asia/Shanghai,5765775
Addis Ababa,Ethiopia,ET,9.0358,38.7525,Africa/Addis_Ababa,5704000
Pudong,China,CN,31.2231,121.5397,Asia/Shanghai,5681512
Xiangyang,China,CN,32.0654,112.1531,Asia/Shanghai,5680000
Toronto,Canada,CA,43.7417,-79.3733,America/Toronto,5647656
Zhengzhou,China,CN,34.7492,113.6605,Asia/Shanghai,5621594
Abidjan,Côte d’Ivoire,CI,5.3364,-4.0267,Africa/Abidjan,5616633
Dezhou,China,CN,37.4513,116.3105,Asia/Shanghai,5611194
Nanchong,China,CN,30.7991,106.0784,Asia/Shanghai,5607565
Saint Petersburg,Russia,RU,59.95,30.3167,Europe/Moscow,5601911
Jieyang,China,CN,23.5533,116.3649,Asia/Shanghai,5577814
Yichun,China,CN,27.8041,114.383,Asia/Shanghai,5573200
Nairobi,Kenya,KE,-1.2864,36.8172,Africa/Nairobi,5545000
Guadalajara,Mexico,MX,20.6764,-103.3422,America/Mexico_City,5525000
Tai’an,China,CN,36.2001,117.0809,Asia/Shanghai,5472217
Dazhou,China,CN,31.2152,107.4947,Asia/Shanghai,5468097
Langfang,China,CN,39.5196,116.7006,Asia/Shanghai,5464087
Sydney,Australia,AU,-33.8678,151.21,Australia/Sydney,5450496
Alexandria,Egypt,EG,31.1975,29.8925,Africa/Cairo,5441866
Suihua,China,CN,46.6384,126.9808,Asia/Shanghai,5418153
Qiqihar,China,CN,47.3398,123.9512,Asia/Shanghai,5367003
Melbourne,Australia,AU,-37.8142,144.9631,Australia/Melbourne,5350705
Kabul,Afghanistan,AF,34.5328,69.1658,Asia/Kabul,5333284
Belo Horizonte,Brazil,BR,-19.9281,-43.9419,America/Sao_Paulo,5328000
Suzhou,China,CN,33.6333,116.9683,Asia/Shanghai,5324476
Monterrey,Mexico,MX,25.6844,-100.3181,America/Monterrey,5324281
Dortmund,Germany,DE,51.5139,7.4653,Europe/Berlin,5302179
Atlanta,United States,US,33.7628,-84.422,America/New_York,5298788
Yongzhou,China,CN,26.4515,111.5953,Asia/Shanghai,5289824
Chattogram,Bangladesh,BD,22.335,91.8325,Asia/Dhaka,5253312
Washington,United States,US,38.9047,-77.0163,America/New_York,5230370
Kanpur,India,IN,24.285,72.6933,Asia/Kolkata,5230000
Yuncheng,China,CN,35.0304,110.998,Asia/Shanghai,5134779
Zhaotong,China,CN,27.3328,103.7144,Asia/Shanghai,5092611
Guilin,China,CN,25.2819,110.2864,Asia/Shanghai,5085500
Zhangzhou,China,CN,24.5093,117.6612,Asia/Shanghai,5054328
Bozhou,China,CN,33.8626,115.7742,Asia/Shanghai,4996844
Pingdingshan,China,CN,33.735,113.2999,Asia/Shanghai,4987137
Suqian,China,CN,33.9331,118.2831,Asia/Shanghai,4986192
Huaihua,China,CN,27.5494,109.9592,Asia/Shanghai,4979600
Ji’an,China,CN,27.1172,114.9793,Asia/Shanghai,4956600
Dubai,United Arab Emirates,AE,25.2697,55.3094,Asia/Dubai,4945000
Xiaoganzhan,China,CN,30.9273,113.911,Asia/Shanghai,4921000
Jiujiang,China,CN,29.7048,116.0021,Asia/Shanghai,4896800
Yibin,China,CN,28.7596,104.64,Asia/Shanghai,4887242
Mianyang,China,CN,31.4669,104.7385,Asia/Shanghai,4868243
Huanglongsi,China,CN,34.795,114.345,Asia/Shanghai,4824016
Johannesburg,South Africa,ZA,-26.2044,28.0416,Africa/Johannesburg,4803262
Barcelona,Spain,ES,41.3825,2.1769,Europe/Madrid,4800000
Jiangmen,China,CN,22.5833,113.0833,Asia/Shanghai,4798090
Cape Town,South Africa,ZA,-33.9253,18.4239,Africa/Johannesburg,4770313
Changsha,China,CN,28.1987,112.9709,Asia/Shanghai,4766297
Chenzhou,China,CN,25.7989,113.0267,Asia/Shanghai,4744500
Jeddah,Saudi Arabia,SA,21.5428,39.1728,Asia/Riyadh,4697000
Weinan,China,CN,34.4996,109.4684,Asia/Shanghai,4688744
Berlin,Germany,DE,52.5167,13.3833,Europe/Berlin,4679500
Xinpu,China,CN,34.5906,119.1801,Asia/Shanghai,4599360
Kanpur,India,IN,26.4725,80.3311,Asia/Kolkata,4581268
Yangzhou,China,CN,32.3912,119.4363,Asia/Shanghai,4559797
Taizhou,China,CN,32.4831,119.9,Asia/Shanghai,4512762
İzmir,Turkey,TR,38.4127,27.1384,Europe/Istanbul,4493242
Belāhi,India,IN,25.7167,86.4,Asia/Kolkata,4487379
Hengshui,China,CN,37.7348,115.686,Asia/Shanghai,4472000
Giza,Egypt,EG,29.987,31.2118,Africa/Cairo,4458135
Boston,United States,US,42.3188,-71.0852,America/New_York,4453352
Kunming,China,CN,25.0433,102.7061,Asia/Shanghai,4422687
Yiyang,China,CN,28.5833,112.3333,Asia/Shanghai,4413800
Guigang,China,CN,23.1144,109.5944,Asia/Shanghai,4409200
Changchun,China,CN,43.88,125.3228,Asia/Shanghai,4408155
Lu’an,China,CN,31.7542,116.5078,Asia/Shanghai,4393699
Jiangguanchi,China,CN,34.0244,113.8201,Asia/Shanghai,4379998
Meizhou,China,CN,24.2998,116.1191,Asia/Shanghai,4378800
Kano,Nigeria,NG,12.0022,8.592,Africa/Lagos,4348000
Zhangjiakou,China,CN,40.8108,114.8811,Asia/Shanghai,4345485
Chifeng,China,CN,42.255,118.8825,Asia/Shanghai,4341245
Ürümqi,China,CN,43.8225,87.6125,Asia/Urumqi,4335018
Shantou,China,CN,23.3539,116.6822,Asia/Shanghai,4312193
Santo Domingo,Dominican Republic,DO,18.4625,-69.9361,America/Santo_Domingo,4274651
Luzhou,China,CN,28.8918,105.4409,Asia/Shanghai,4254149
Bamako,Mali,ML,12.6458,-7.9922,Africa/Bamako,4227569
Hefei,China,CN,31.8639,117.2808,Asia/Shanghai,4216941
Fortaleza,Brazil,BR,-3.7275,-38.5275,America/Fortaleza,4167996
Anqing,China,CN,30.5,117.0333,Asia/Shanghai,4165284
Liuzhou,China,CN,24.3264,109.4281,Asia/Shanghai,4157934
Zhaoqing,China,CN,23.05,112.4667,Asia/Shanghai,4151700
Phoenix,United States,US,33.5722,-112.0892,America/Phoenix,4121103
Shijiazhuang,China,CN,38.0425,114.51,Asia/Shanghai,4098244
Ningbo,China,CN,29.875,121.5492,Asia/Shanghai,4087524
Fuzhou,China,CN,27.9814,116.3577,Asia/Shanghai,4047200
Zhuzhou,China,CN,27.8407,113.1469,Asia/Shanghai,4020800
Xiaoxita,China,CN,30.7083,111.2803,Asia/Shanghai,4017607
Amman,Jordan,JO,31.95,35.9333,Asia/Amman,4007526
Chuzhou,China,CN,32.3062,118.3115,Asia/Shanghai,3987054
Linfen,China,CN,36.0812,111.5087,Asia/Shanghai,3976481
Qingyuan,China,CN,23.6842,113.0507,Asia/Shanghai,3969473
Xianyang,China,CN,34.3297,108.7092,Asia/Shanghai,3959842
Casablanca,Morocco,MA,33.5992,-7.62,Africa/Casablanca,3950000
Loudi,China,CN,27.7378,111.9974,Asia/Shanghai,3931800
Kumasi,Ghana,GH,6.7,-1.625,Africa/Accra,3903480
Deyang,China,CN,31.1289,104.395,Asia/Shanghai,3877000
Taiyuan,China,CN,37.8733,112.5425,Asia/Shanghai,3875054
Ibadan,Nigeria,NG,7.3775,3.9058,Africa/Lagos,3861000
Zaozhuang,China,CN,34.8667,117.55,Asia/Shanghai,3855601
Nanning,China,CN,22.8192,108.315,Asia/Shanghai,3837979
Taichung,Taiwan,TW,24.1439,120.6794,Asia/Taipei,3799301
Detroit,United States,US,42.3834,-83.1024,America/Detroit,3773725
Puyang,China,CN,35.7639,115.03,Asia/Shanghai,3772088
Abuja,Nigeria,NG,9.0556,7.4914,Africa/Lagos,3770000
Yokohama,Japan,JP,35.4333,139.65,Asia/Tokyo,3757630
Xiamen,China,CN,24.4797,118.0819,Asia/Shanghai,3707091
Neijiang,China,CN,29.5872,105.0635,Asia/Shanghai,3702847
Montréal,Canada,CA,45.5089,-73.5617,America/Toronto,3675219
Fuzhou,China,CN,26.0769,119.2917,Asia/Shanghai,3671193
Baicheng,China,CN,23.901,106.6194,Asia/Shanghai,3669400
Wuhu,China,CN,31.334,118.3622,Asia/Shanghai,3644420
Seattle,United States,US,47.6211,-122.3244,America/Los_Angeles,3642006
Medan,Indonesia,ID,3.5894,98.6739,Asia/Jakarta,3632000
Yulinshi,China,CN,38.2655,109.7388,Asia/Shanghai,3624750
Wenzhou,China,CN,27.9991,120.6561,Asia/Shanghai,3604447
Changzhou,China,CN,31.8122,119.9692,Asia/Shanghai,3601080
Jiaozuo,China,CN,35.229,113.2304,Asia/Shanghai,3590700
Nanchang,China,CN,28.6842,115.8872,Asia/Shanghai,3576548
Cologne,Germany,DE,50.9422,6.9578,Europe/Berlin,3500000
Vadodara,India,IN,22.3,73.2,Asia/Kolkata,3500000
Nādampālaiyam,India,IN,11.1793,77.376,Asia/Kolkata,3458045
Busan,"Korea, South",KR,35.18,129.075,Asia/Seoul,3453198
Hohhot,China,CN,40.8151,111.6629,Asia/Shanghai,3446100
San Francisco,United States,US,37.7558,-122.4449,America/Los_Angeles,3417736
Tangshan,China,CN,39.6294,118.1739,Asia/Shanghai,3399232
Shiyan,China,CN,32.6351,110.7755,Asia/Shanghai,3398000
Siping,China,CN,43.1715,124.3644,Asia/Shanghai,3385156
Lucknow,India,IN,26.847,80.947,Asia/Kolkata,3382000
Lembok,Indonesia,ID,-8.6312,116.3176,Asia/Makassar,3352988
Changzhi,China,CN,36.1953,113.097,Asia/Shanghai,3334565
Anshan,China,CN,41.1066,122.9895,Asia/Shanghai,3325372
Guozhen,China,CN,34.3659,107.359,Asia/Shanghai,3321853
Baojishi,China,CN,34.3609,107.1751,Asia/Shanghai,3321853
Mashhad,Iran,IR,36.2975,59.6059,Asia/Tehran,3317381
Qinzhou,China,CN,21.95,108.6167,Asia/Shanghai,3304400
Guiyang,China,CN,26.5794,106.7078,Asia/Shanghai,3299725
Tongren,China,CN,27.7233,109.1885,Asia/Shanghai,3298468
Bengbu,China,CN,32.9354,117.3531,Asia/Shanghai,3296408
Bazhou,China,CN,31.8576,106.7559,Asia/Shanghai,3283148
Suining,China,CN,30.5098,105.5737,Asia/Shanghai,3252619
Wuxi,China,CN,31.5667,120.2833,Asia/Shanghai,3245180
Kannankulam,India,IN,10.4799,76.1131,Asia/Kolkata,3243170
Leshan,China,CN,29.5854,103.7575,Asia/Shanghai,3235759
Hanzhong,China,CN,33.0794,107.026,Asia/Shanghai,3211462
Putian,China,CN,25.4394,119.0103,Asia/Shanghai,3210714
Zhenjiang,China,CN,32.2109,119.4551,Asia/Shanghai,3210418
Cần Thơ,Vietnam,VN,10.1547,105.5005,Asia/Ho_Chi_Minh,3207000
Faisalabad,Pakistan,PK,31.418,73.079,Asia/Karachi,3203846
Mahuākherāganj,India,IN,29.13,78.95,Asia/Kolkata,3198982
Nagla,India,IN,29.01,79.51,Asia/Kolkata,3198982
Santa Cruz de la Sierra,Bolivia,BO,-17.7892,-63.1975,America/La_Paz,3151676
Ningde,China,CN,26.6617,119.5228,Asia/Shanghai,3146789
Tongliao,China,CN,43.6172,122.264,Asia/Shanghai,3139153
Qinhuangdao,China,CN,39.9398,119.5881,Asia/Shanghai,3136879
Jinzhou,China,CN,41.1144,121.1292,Asia/Shanghai,3126463
Guayaquil,Ecuador,EC,-2.19,-79.8875,America/Guayaquil,3094420
Heyuan,China,CN,23.7503,114.6923,Asia/Shanghai,3093900
Quezon City,Philippines,PH,14.65,121.0475,Asia/Manila,3084270
Jaipur,India,IN,26.915,75.82,Asia/Kolkata,3073350
Budapest,Hungary,HU,47.4983,19.0408,Europe/Budapest,3067751
Xinzhou,China,CN,38.4178,112.7233,Asia/Shanghai,3067501
Lanzhou,China,CN,36.0617,103.8318,Asia/Shanghai,3067142
San Diego,United States,US,32.8313,-117.1222,America/Los_Angeles,3064435
Ouagadougou,Burkina Faso,BF,12.3686,-1.5275,Africa/Ouagadougou,3063271
Wuzhou,China,CN,23.4833,111.3167,Asia/Shanghai,3061100
Athens,Greece,GR,37.9842,23.7281,Europe/Athens,3059764
Incheon,"Korea, South",KR,37.4639,126.6486,Asia/Seoul,3049315
Chaoyang,China,CN,41.5757,120.4486,Asia/Shanghai,3044641
Huainan,China,CN,32.4831,117.0164,Asia/Shanghai,3033528
Algiers,Algeria,DZ,36.7764,3.0586,Africa/Algiers,3004000
Shaoguan,China,CN,24.8011,113.5927,Asia/Shanghai,2997600
Brasília,Brazil,BR,-15.7939,-47.8828,America/Sao_Paulo,2996899
Kuwait City,Kuwait,KW,29.375,47.98,Asia/Kuwait,2989000
Qincheng,China,CN,34.5809,105.7311,Asia/Shanghai,2984659
Rizhao,China,CN,35.4164,119.4331,Asia/Shanghai,2968365
Tampa,United States,US,27.9945,-82.4447,America/New_York,2957531
Sanaa,Yemen,YE,15.35,44.2,Asia/Aden,2957000
Tashkent,Uzbekistan,UZ,41.3111,69.2797,Asia/Tashkent,2956384
Meishan,China,CN,30.0575,103.8381,Asia/Shanghai,2955219
Kyiv,Ukraine,UA,50.45,30.5236,Europe/Kyiv,2952301
Kottārasshēri,India,IN,10.6167,76.5333,Asia/Kolkata,2952254
Minneapolis,United States,US,44.9635,-93.2678,America/Chicago,2937866
Cali,Colombia,CO,3.44,-76.5197,America/Bogota,2916790
Port-au-Prince,Haiti,HT,18.5469,-72.3403,America/Port-au-Prince,2914190
Zhongshan,China,CN,22.5333,113.35,Asia/Shanghai,2909634
Weihai,China,CN,37.5,122.1,Asia/Shanghai,2906548
Daqing,China,CN,46.5979,125.008,Asia/Shanghai,2904532
Bursa,Turkey,TR,40.1913,29.0805,Europe/Istanbul,2901396
Mbuji-Mayi,Congo (Kinshasa),CD,-6.1209,23.5967,Africa/Lubumbashi,2892000
Haikou,China,CN,20.02,110.32,Asia/Shanghai,2873358
Xiangtan,China,CN,27.8431,112.9228,Asia/Shanghai,2864800
Pyongyang,"Korea, North",KP,39.0167,125.7475,Asia/Pyongyang,2863000
San Luis Potosí,Mexico,MX,22.1497,-100.975,America/Mexico_City,2822255
Brazzaville,Congo (Brazzaville),CG,-4.2694,15.2711,Africa/Brazzaville,2813480
Omdurman,Sudan,SD,15.6835,32.4629,Africa/Khartoum,2805396
Mudanjiang,China,CN,44.5861,129.5997,Asia/Shanghai,2798723
Stuttgart,Germany,DE,48.7775,9.18,Europe/Berlin,2787727
Rome,Italy,IT,41.8931,12.4828,Europe/Rome,2748109
Shanwei,China,CN,22.7664,115.3331,Asia/Shanghai,2738482
Brooklyn,United States,US,40.6501,-73.9496,America/New_York,2736074
Kaohsiung,Taiwan,TW,22.615,120.2975,Asia/Taipei,2733964
Teresina,Brazil,BR,-5.0903,-42.8167,America/Fortaleza,2729527
Longyan,China,CN,25.0881,117.0244,Asia/Shanghai,2723637
Tieling,China,CN,42.2841,123.8365,Asia/Shanghai,2717732
Denver,United States,US,39.762,-104.8758,America/Denver,2714768
Baotou,China,CN,40.6562,109.8345,Asia/Shanghai,2709378
Handan,China,CN,36.6116,114.4894,Asia/Shanghai,2708016
Brisbane,Australia,AU,-27.4678,153.0278,Australia/Brisbane,2706966
Dingxi,China,CN,35.5806,104.6263,Asia/Shanghai,2698624
Damascus,Syria,SY,33.5131,36.2919,Asia/Damascus,2685360
Nanping,China,CN,26.6448,118.1728,Asia/Shanghai,2680645
Zigong,China,CN,29.3498,104.7645,Asia/Shanghai,2678899
Gāzipura,Bangladesh,BD,23.9889,90.375,Asia/Dhaka,2677715
Chaozhou,China,CN,23.67,116.63,Asia/Shanghai,2656600
Weifang,China,CN,36.7167,119.1,Asia/Shanghai,2636155
Huai’an,China,CN,33.5886,119.0192,Asia/Shanghai,2632789
Zibo,China,CN,36.7831,118.0497,Asia/Shanghai,2631648
Huludao,China,CN,40.7094,120.8378,Asia/Shanghai,2623541
Munich,Germany,DE,48.1375,11.575,Europe/Berlin,2606021
Gulou,China,CN,26.0865,119.298,Asia/Shanghai,2606000
Yangjiang,China,CN,21.8556,111.9627,Asia/Shanghai,2602959
Yanjiang,China,CN,30.1256,104.6397,Asia/Shanghai,2593843
Birmingham,United Kingdom,GB,52.48,-1.9025,Europe/London,2590363
Jiamusi,China,CN,46.8081,130.3653,Asia/Shanghai,2552097
Medellín,Colombia,CO,6.2502,-75.5676,America/Bogota,2529403
Shaoxing,China,CN,30.0,120.5833,Asia/Shanghai,2521965
Yantai,China,CN,37.4644,121.4478,Asia/Shanghai,2511054
Huizhou,China,CN,23.1115,114.4152,Asia/Shanghai,2509244
Lishui,China,CN,28.45,119.9167,Asia/Shanghai,2507396
Xuanzhou,China,CN,30.9475,118.7518,Asia/Shanghai,2500063
Gorakhpur,India,IN,22.1688,81.6042,Asia/Kolkata,2500000
Hamburg,Germany,DE,53.55,10.0,Europe/Berlin,2496600
Ankang,China,CN,32.6877,109.0235,Asia/Shanghai,2493436
Havana,Cuba,CU,23.1367,-82.3589,America/Havana,2492618
Sanming,China,CN,26.2658,117.6302,Asia/Shanghai,2486450
Toluca,Mexico,MX,19.2922,-99.6539,America/Mexico_City,2476689
Huangshi,China,CN,30.2018,115.0326,Asia/Shanghai,2471700
Anshun,China,CN,26.2456,105.934,Asia/Shanghai,2470630
Xining,China,CN,36.6239,101.7787,Asia/Shanghai,2467965
Lusaka,Zambia,ZM,-15.4167,28.2833,Africa/Lusaka,2467563
Dandong,China,CN,40.1167,124.3833,Asia/Shanghai,2444697
Daegu,"Korea, South",KR,35.8717,128.6017,Asia/Seoul,2444412
Taipei,Taiwan,TW,25.0375,121.5625,Asia/Taipei,2442991
Yaoundé,Cameroon,CM,3.8578,11.5181,Africa/Douala,2440462
Zhuhai,China,CN,22.2742,113.5719,Asia/Shanghai,2439585
Baoshan,China,CN,25.1211,99.169,Asia/Shanghai,2431211
Yingkou,China,CN,40.6653,122.2297,Asia/Shanghai,2428534
Mecca,Saudi Arabia,SA,21.4225,39.8261,Asia/Riyadh,2427924
Antalya,Turkey,TR,36.9081,30.6956,Europe/Istanbul,2426356
Vancouver,Canada,CA,49.25,-123.1,America/Vancouver,2426160
Lianshan,China,CN,40.7643,120.8533,Asia/Shanghai,2426000
Beirut,Lebanon,LB,33.8869,35.5131,Asia/Beirut,2421354
Salvador,Brazil,BR,-12.9831,-38.4928,America/Bahia,2417678
Bucharest,Romania,RO,44.4134,26.0978,Europe/Bucharest,2412530
Nāgpur,India,IN,21.1497,79.0806,Asia/Kolkata,2405665
Queens,United States,US,40.7498,-73.7976,America/New_York,2405464
Yunfu,China,CN,22.9242,112.0353,Asia/Shanghai,2383350
Bekasi,Indonesia,ID,-6.2333,107.0,Asia/Jakarta,2381053
Guwāhāti,India,IN,26.1806,91.7502,Asia/Kolkata,2376654
Ghāziābād,India,IN,28.6667,77.4167,Asia/Kolkata,2375820
Luoyang,China,CN,34.6587,112.4245,Asia/Shanghai,2372572
Luohe,China,CN,33.583,114.0109,Asia/Shanghai,2367490
Riverside,United States,US,33.9381,-117.3949,America/Los_Angeles,2333040
Colombo,Sri Lanka,LK,6.9267,79.8606,Asia/Colombo,2323826
Frankfurt,Germany,DE,50.1106,8.6822,Europe/Berlin,2319029
Manaus,Brazil,BR,-3.1189,-60.0217,America/Manaus,2303732
Baku,Azerbaijan,AZ,40.3667,49.8352,Asia/Baku,2300500
Antananarivo,Madagascar,MG,-18.91,47.525,Indian/Antananarivo,2300000
Las Vegas,United States,US,36.2333,-115.2654,America/Los_Angeles,2299189
Fukuoka,Japan,JP,33.5901,130.4017,Asia/Tokyo,2286000
Yan’an,China,CN,36.5952,109.4863,Asia/Shanghai,2282581
Changping,China,CN,40.2197,116.2255,Asia/Shanghai,2269487
Nantong,China,CN,31.9829,120.8873,Asia/Shanghai,2261383
Lincang,China,CN,23.8864,100.0871,Asia/Shanghai,2257991
Yuxi,China,CN,24.3495,102.5432,Asia/Shanghai,2249502
Caracas,Venezuela,VE,10.5061,-66.9144,America/Caracas,2245744
Tangerang,Indonesia,ID,-6.1703,106.6403,Asia/Jakarta,2237006
Laibin,China,CN,23.7333,109.2333,Asia/Shanghai,2233900
Konya,Turkey,TR,37.8728,32.4921,Europe/Istanbul,2232374
Almaty,Kazakhstan,KZ,43.24,76.915,Asia/Almaty,2228675
Vienna,Austria,AT,48.2083,16.3725,Europe/Vienna,2223236
Eşfahān,Iran,IR,32.6525,51.675,Asia/Tehran,2219343
Qinbaling,China,CN,35.7278,107.64,Asia/Shanghai,2211191
Baltimore,United States,US,39.3051,-76.6144,America/New_York,2201673
Jincheng,China,CN,35.4906,112.8483,Asia/Shanghai,2194545
Shengli,China,CN,37.45,118.4667,Asia/Shanghai,2193518
Lomé,Togo,TG,6.13,1.2158,Africa/Lome,2188376
Campinas,Brazil,BR,-22.9009,-47.0573,America/Sao_Paulo,2184952
Gaoping,China,CN,30.7758,106.1029,Asia/Shanghai,2174000
Awka,Nigeria,NG,6.2,7.0667,Africa/Lagos,2171900
Taizhou,China,CN,28.6583,121.4221,Asia/Shanghai,2162461
Ma’anshan,China,CN,31.6858,118.5101,Asia/Shanghai,2159930
Harare,Zimbabwe,ZW,-17.8292,31.0522,Africa/Harare,2150000
Perth,Australia,AU,-31.9558,115.8597,Australia/Perth,2141834
Coimbatore,India,IN,11.0008,76.9633,Asia/Kolkata,2136916
St. Louis,United States,US,38.6359,-90.2451,America/Chicago,2129918
Phnom Penh,Cambodia,KH,11.5696,104.921,Asia/Phnom_Penh,2129371
Haiphong,Vietnam,VN,20.8,106.6667,Asia/Bangkok,2124500
Mogadishu,Somalia,SO,2.0392,45.3419,Africa/Mogadishu,2120000
Puning,China,CN,23.2993,116.1586,Asia/Shanghai,2118200
Portland,United States,US,45.5371,-122.65,America/Los_Angeles,2115140
Kowloon,Hong Kong,HK,22.3167,114.1833,Asia/Hong_Kong,2108419
Panama City,Panama,PA,8.9711,-79.5347,America/Panama,2100189
Zamboanga City,Philippines,PH,6.9042,122.0761,Asia/Manila,2100000
Chongzuo,China,CN,22.4167,107.3667,Asia/Shanghai,2099400
Rawalpindi,Pakistan,PK,33.6007,73.0679,Asia/Karachi,2098231
San Antonio,United States,US,29.4632,-98.5238,America/Chicago,2096390
Hezhou,China,CN,24.4164,111.5478,Asia/Shanghai,2072600
Pingliang,China,CN,35.5412,106.6819,Asia/Shanghai,2068033
La Paz,Bolivia,BO,-16.4958,-68.1333,America/La_Paz,2063633
Qingyang,China,CN,24.8141,118.5792,Asia/Shanghai,2061600
Patna,India,IN,25.61,85.1414,Asia/Kolkata,2046652
Rājkot,India,IN,22.2969,70.7984,Asia/Kolkata,2043000
Shangzhou,China,CN,33.868,109.9244,Asia/Shanghai,2041231
Vishākhapatnam,India,IN,17.6939,83.2922,Asia/Kolkata,2035922
Sanmenxia,China,CN,34.7736,111.195,Asia/Shanghai,2034872
Baicheng,China,CN,45.6148,122.832,Asia/Shanghai,2032356
Warsaw,Poland,PL,52.23,21.0111,Europe/Warsaw,2028000
Gujranwala,Pakistan,PK,32.15,74.1833,Asia/Karachi,2027001
Aleppo,Syria,SY,36.2,37.16,Asia/Damascus,2003671
Tijuana,Mexico,MX,32.5364,-117.0372,America/Tijuana,2002000
Minsk,Belarus,BY,53.9022,27.5618,Europe/Minsk,1995091
Indore,India,IN,22.7186,75.855,Asia/Kolkata,1994397
Şanlıurfa,Turkey,TR,37.1583,38.7917,Europe/Istanbul,1985753
Sacramento,United States,US,38.5677,-121.4685,America/Los_Angeles,1975489
Karaj,Iran,IR,35.8328,50.9917,Asia/Tehran,1973470
Kananga,Congo (Kinshasa),CD,-5.8961,22.4167,Africa/Lubumbashi,1971704
Huaibei,China,CN,33.9562,116.789,Asia/Shanghai,1970265
Peshawar,Pakistan,PK,34.0144,71.5675,Asia/Karachi,1970042
Sapporo,Japan,JP,43.0619,141.3544,Asia/Tokyo,1959313
Valencia,Venezuela,VE,10.1667,-68.0,America/Caracas,1958724
Orlando,United States,US,28.4773,-81.337,America/New_York,1948155
Austin,United States,US,30.3005,-97.7522,America/Chicago,1940039
Pingxiang,China,CN,27.6333,113.85,Asia/Shanghai,1933200
Songjiang,China,CN,31.0152,121.2291,Asia/Shanghai,1909713
Yinchuan,China,CN,38.485,106.225,Asia/Shanghai,1901793
Abhepur,India,IN,30.6667,76.8333,Asia/Kolkata,1895686
Gumānwāla,India,IN,29.9333,77.9,Asia/Kolkata,1890422
Thāne,India,IN,19.18,72.9633,Asia/Kolkata,1886941
Tainan,Taiwan,TW,22.99,120.185,Asia/Taipei,1874686
Multan,Pakistan,PK,30.1978,71.4711,Asia/Karachi,1871843
Port Harcourt,Nigeria,NG,4.7655,7.0163,Africa/Lagos,1865000
Jixi,China,CN,45.2937,130.965,Asia/Shanghai,1862165
Fushun,China,CN,41.8708,123.8917,Asia/Shanghai,1861372
Yiwu,China,CN,29.3081,120.0698,Asia/Shanghai,1859390
Liaoyang,China,CN,41.2643,123.1772,Asia/Shanghai,1858768
Beihai,China,CN,21.4667,109.1,Asia/Shanghai,1853227
Davao,Philippines,PH,7.0662,125.6094,Asia/Manila,1848947
Xushan,China,CN,30.1697,121.2665,Asia/Shanghai,1829488
San Jose,United States,US,37.3012,-121.848,America/Los_Angeles,1827643
Fuxin,China,CN,42.0127,121.6486,Asia/Shanghai,1819339
Wuwei,China,CN,37.9278,102.6329,Asia/Shanghai,1815059
San Juan,Puerto Rico,PR,18.3985,-66.061,America/Puerto_Rico,1813477
Bhopāl,India,IN,23.25,77.4167,Asia/Kolkata,1798218
Mosul,Iraq,IQ,36.3667,43.1167,Asia/Baghdad,1792000
Montevideo,Uruguay,UY,-34.9059,-56.1913,America/Montevideo,1788170
Lubumbashi,Congo (Kinshasa),CD,-11.6642,27.4828,Africa/Lubumbashi,1786397
Accra,Ghana,GH,5.556,-0.1969,Africa/Accra,1782150
Benin City,Nigeria,NG,6.3176,5.6145,Africa/Lagos,1780000
Curitiba,Brazil,BR,-25.4297,-49.2719,America/Sao_Paulo,1773718
Shuyangzha,China,CN,34.1,118.7333,Asia/Shanghai,1770000
Indianapolis,United States,US,39.7771,-86.1458,America/Indiana/Indianapolis,1767321
Adana,Turkey,TR,36.9866,35.3387,Europe/Istanbul,1765981
Quito,Ecuador,EC,-0.22,-78.5125,America/Guayaquil,1763275
Āgra,India,IN,27.18,78.02,Asia/Kolkata,1760285
Peyanvilai,India,IN,8.5674,78.1046,Asia/Kolkata,1750176
Kigali,Rwanda,RW,-1.9525,30.115,Africa/Kigali,1745555
Hyderabad City,Pakistan,PK,25.3792,68.3683,Asia/Karachi,1732693
Diyarbakır,Turkey,TR,37.9108,40.2367,Europe/Istanbul,1732396
Pittsburgh,United States,US,40.4397,-79.9763,America/New_York,1729616
Pimpri-Chinchwad,India,IN,18.6278,73.8131,Asia/Kolkata,1729320
Cincinnati,United States,US,39.1413,-84.506,America/New_York,1726642
Masqaţ,Oman,OM,23.614,58.5911,Asia/Muscat,1720000
Lyon,France,FR,45.7675,4.835,Europe/Paris,1716050
Kansas City,United States,US,39.1238,-94.5541,America/Chicago,1714910
Shuozhou,China,CN,39.3408,112.4292,Asia/Shanghai,1714857
Caloocan City,Philippines,PH,14.65,120.9667,Asia/Manila,1712945
Benxi,China,CN,41.292,123.761,Asia/Shanghai,1709538
Baiyin,China,CN,36.5448,104.1766,Asia/Shanghai,1708751
Saundhonwāli,India,IN,30.3331,77.9608,Asia/Kolkata,1696694
Cleveland,United States,US,41.4764,-81.6805,America/New_York,1695555
Manhattan,United States,US,40.7834,-73.9662,America/New_York,1694263
Gaziantep,Turkey,TR,37.0628,37.3792,Europe/Istanbul,1680723
Kampala,Uganda,UG,0.3136,32.5811,Africa/Kampala,1680600
Sanzhou,China,CN,30.7458,108.431,Asia/Shanghai,1680000
Changshu,China,CN,31.65,120.7333,Asia/Shanghai,1677050
Jingdezhen,China,CN,29.2942,117.2036,Asia/Shanghai,1673200
Conakry,Guinea,GN,9.5092,-13.7122,Africa/Conakry,1667864
Ecatepec,Mexico,MX,19.5991,-99.0492,America/Mexico_City,1655015
Masvingo,Zimbabwe,ZW,-20.0744,30.8328,Africa/Harare,1638528
Novosibirsk,Russia,RU,55.0333,82.9167,Asia/Novosibirsk,1637266
Marseille,France,FR,43.2967,5.3764,Europe/Paris,1635154
Columbus,United States,US,39.9862,-82.9855,America/New_York,1635039
Semarang,Indonesia,ID,-6.99,110.4225,Asia/Jakarta,1621384
Ludhiāna,India,IN,30.9083,75.8486,Asia/Kolkata,1618879
Jiangyin,China,CN,31.9087,120.2653,Asia/Shanghai,1595138
Valencia,Spain,ES,39.47,-0.3764,Europe/Madrid,1595000
León de los Aldama,Mexico,MX,21.1219,-101.6833,America/Mexico_City,1579803
Puebla,Mexico,MX,19.0413,-98.2062,America/Mexico_City,1576259
Chengtangcun,China,CN,35.0833,117.15,Asia/Shanghai,1574648
Meerut,India,IN,28.98,77.7064,Asia/Kolkata,1571434
Yopougon,Côte d’Ivoire,CI,5.3347,-4.07,Africa/Abidjan,1571065
Abu Dhabi,United Arab Emirates,AE,24.4511,54.3969,Asia/Dubai,1570000
Shīrāz,Iran,IR,29.61,52.5425,Asia/Tehran,1565572
Madurai,India,IN,9.9197,78.1194,Asia/Kolkata,1561129
Huzhou,China,CN,30.8925,120.0875,Asia/Shanghai,1558826
Tabrīz,Iran,IR,38.0739,46.2961,Asia/Tehran,1558693
Jamshedpur,India,IN,22.8,86.1833,Asia/Kolkata,1558000
Maracaibo,Venezuela,VE,10.6333,-71.6333,America/Caracas,1551539
San Salvador,El Salvador,SV,13.6976,-89.1912,America/El_Salvador,1538525
Kawasaki,Japan,JP,35.5308,139.703,Asia/Tokyo,1538262
Zhangjiajie,China,CN,29.1255,110.4844,Asia/Shanghai,1537900
Palembang,Indonesia,ID,-2.9833,104.7644,Asia/Jakarta,1535952
Dublin,Ireland,IE,53.3497,-6.2603,Europe/Dublin,1534900
Ad Dammām,Saudi Arabia,SA,26.4333,50.1,Asia/Riyadh,1532326
Sofia,Bulgaria,BG,42.6979,23.3217,Europe/Sofia,1531867
Kōbe,Japan,JP,34.6902,135.1954,Asia/Tokyo,1521707
Rui’an,China,CN,27.778,120.6526,Asia/Shanghai,1520386
Jiaxing,China,CN,30.7522,120.75,Asia/Shanghai,1518654
Guiping,China,CN,23.4,110.0833,Asia/Shanghai,1511011
Lianjiang,China,CN,21.6146,110.2794,Asia/Shanghai,1509400
Yucheng,China,CN,29.9888,103.0007,Asia/Shanghai,1507258
Córdoba,Argentina,AR,-31.4167,-64.1833,America/Argentina/Cordoba,1505250
Nneyi-Umuleri,Nigeria,NG,6.295,6.8988,Africa/Lagos,1500000
Niamey,Niger,NE,13.515,2.1175,Africa/Niamey,1496260
Leizhou,China,CN,20.9147,110.0806,Asia/Shanghai,1494700
Gwangju,"Korea, South",KR,35.1667,126.9167,Asia/Seoul,1490092
Recife,Brazil,BR,-8.0539,-34.8808,America/Recife,1488920
Charlotte,United States,US,35.2083,-80.8303,America/New_York,1488249
Nāsik,India,IN,20.0,73.7833,Asia/Kolkata,1486053
Onitsha,Nigeria,NG,6.1667,6.7833,Africa/Lagos,1483000
Amsterdam,Netherlands,NL,52.3667,4.8833,Europe/Amsterdam,1477213
Daejeon,"Korea, South",KR,36.35,127.385,Asia/Seoul,1475221
Bronx,United States,US,40.8501,-73.8662,America/New_York,1472654
Auckland,New Zealand,NZ,-36.8492,174.7653,Pacific/Auckland,1470100
Yekaterinburg,Russia,RU,56.8356,60.6128,Asia/Yekaterinburg,1468833
Jinhua,China,CN,29.1046,119.6494,Asia/Shanghai,1463990
Shuangyashan,China,CN,46.6388,131.1545,Asia/Shanghai,1462626
Pizhou,China,CN,34.3422,118.0097,Asia/Shanghai,1462563
Nouakchott,Mauritania,MR,18.0858,-15.9785,Africa/Nouakchott,1446761
Virginia Beach,United States,US,36.7335,-76.0435,America/New_York,1441893
Dakar,Senegal,SN,14.6726,-17.432,Africa/Dakar,1438725
Goiânia,Brazil,BR,-16.6806,-49.2564,America/Sao_Paulo,1437366
Kyōto,Japan,JP,35.0111,135.7669,Asia/Tokyo,1431419
Guankou,China,CN,28.1675,113.6375,Asia/Shanghai,1429384
Guyuan,China,CN,36.008,106.2782,Asia/Shanghai,1426000
Muscat,Oman,OM,23.6139,58.5922,Asia/Muscat,1421409
Kharkiv,Ukraine,UA,49.9925,36.2311,Europe/Kyiv,1421125
Pointe-Noire,Congo (Brazzaville),CG,-4.7975,11.8503,Africa/Brazzaville,1420612
Wenling,China,CN,28.3797,121.3718,Asia/Shanghai,1416199
Gaozhou,China,CN,21.9135,110.8481,Asia/Shanghai,1414100
Medina,Saudi Arabia,SA,24.47,39.61,Asia/Riyadh,1411599
Farīdābād,India,IN,28.4167,77.3,Asia/Kolkata,1404653
Prague,Czechia,CZ,50.0875,14.4214,Europe/Prague,1397880
Copenhagen,Denmark,DK,55.6761,12.5689,Europe/Copenhagen,1396508
Ulaanbaatar,Mongolia,MN,47.9214,106.9055,Asia/Ulaanbaatar,1396288
Fuqing,China,CN,25.7232,119.3735,Asia/Shanghai,1390487
Kayseri,Turkey,TR,38.7225,35.4875,Europe/Istanbul,1389680
Porto,Portugal,PT,41.15,-8.6108,Europe/Lisbon,1389593
Porto Alegre,Brazil,BR,-30.0328,-51.23,America/Sao_Paulo,1388794
Mombasa,Kenya,KE,-4.05,39.6667,Africa/Nairobi,1388449
Tel Aviv-Yafo,Israel,IL,32.08,34.78,Asia/Jerusalem,1388400
Adelaide,Australia,AU,-34.9275,138.6,Australia/Adelaide,1387290
Wuzhong,China,CN,37.9874,106.1919,Asia/Shanghai,1382713
Nuremberg,Germany,DE,49.4539,11.0775,Europe/Berlin,1374524
Samsun,Turkey,TR,41.2867,36.33,Europe/Istanbul,1368488
Madārpur,India,IN,26.227,84.6746,Asia/Kolkata,1367765
Kisangani,Congo (Kinshasa),CD,0.5153,25.1911,Africa/Lubumbashi,1366000
Najafgarh,India,IN,28.6125,76.9847,Asia/Kolkata,1365152
Helsinki,Finland,FI,60.1708,24.9375,Europe/Helsinki,1360075
Milan,Italy,IT,45.4669,9.19,Europe/Rome,1354196
Khamīs Mushayţ,Saudi Arabia,SA,18.3,42.7333,Asia/Riyadh,1353000
Santiago,Dominican Republic,DO,19.45,-70.7,America/Santo_Domingo,1343423
Chizhou,China,CN,30.6583,117.4849,Asia/Shanghai,1342764
Abobo,Côte d’Ivoire,CI,5.4189,-4.0206,Africa/Abidjan,1340083
Makassar,Indonesia,ID,-5.1331,119.4136,Asia/Makassar,1338663
Xintai,China,CN,35.91,117.78,Asia/Shanghai,1338254
Liangshi,China,CN,27.2578,111.7351,Asia/Shanghai,1335900
Jacksonville,United States,US,30.3322,-81.6749,America/New_York,1335714
Huangshan,China,CN,29.7132,118.3151,Asia/Shanghai,1330565
Kazan,Russia,RU,55.7908,49.1144,Europe/Moscow,1329825
Barranquilla,Colombia,CO,10.9833,-74.8019,America/Bogota,1326588
Al Başrah,Iraq,IQ,30.515,47.81,Asia/Baghdad,1326564
Denpasar,Indonesia,ID,-8.6717,115.2339,Asia/Makassar,1326000
Saitama,Japan,JP,35.8614,139.6456,Asia/Tokyo,1325843
Ahvāz,Iran,IR,31.3189,48.6842,Asia/Tehran,1325000
Iwatsuki,Japan,JP,35.9508,139.6994,Asia/Tokyo,1324854
Guarulhos,Brazil,BR,-23.4667,-46.5333,America/Sao_Paulo,1324781
Juárez,Mexico,MX,31.6685,-106.42,America/Ciudad_Juarez,1321004
Mandalay,Burma,MM,21.9747,96.0836,Asia/Yangon,1319452
Yangquan,China,CN,37.8576,113.5762,Asia/Shanghai,1318505
Tongling,China,CN,30.9456,117.8114,Asia/Shanghai,1311726
Wusong,China,CN,30.95,117.7833,Asia/Shanghai,1311726
Taguig City,Philippines,PH,14.5167,121.05,Asia/Manila,1308085
Calgary,Canada,CA,51.05,-114.0667,America/Edmonton,1306784
Yushu,China,CN,44.8249,126.5451,Asia/Shanghai,1304436
Belém,Brazil,BR,-1.4558,-48.5039,America/Belem,1303403
Kuaidamao,China,CN,41.7302,125.9471,Asia/Shanghai,1302778
Huazhou,China,CN,21.654,110.6294,Asia/Shanghai,1302100
Belgrade,Serbia,RS,44.8178,20.4569,Europe/Belgrade,1298661
Bagam,Indonesia,ID,1.0299,104.095,Asia/Jakarta,1296960
Baishan,China,CN,41.9377,126.4179,Asia/Shanghai,1296127
Haicheng,China,CN,40.8523,122.7474,Asia/Shanghai,1293877
Providence,United States,US,41.823,-71.4187,America/New_York,1292041
Milwaukee,United States,US,43.0642,-87.9675,America/Chicago,1291752
Heihe,China,CN,50.2431,127.506,Asia/Shanghai,1286401
Yicheng,China,CN,31.3697,119.8239,Asia/Shanghai,1285785
Pekanbaru,Indonesia,ID,0.5333,101.45,Asia/Jakarta,1285353
Tangier,Morocco,MA,35.7767,-5.8039,Africa/Casablanca,1275428
Soweto,South Africa,ZA,-26.2678,27.8586,Africa/Johannesburg,1271628
Xiantao,China,CN,30.3833,113.4,Asia/Shanghai,1268715
Jabalpur,India,IN,23.1667,79.9333,Asia/Kolkata,1267564
Huaiyin,China,CN,33.5886,119.0192,Asia/Shanghai,1264000
Madanpur,India,IN,29.326,79.1537,Asia/Kolkata,1260078
Kamalwaganja Gaur,India,IN,29.2117,79.4654,Asia/Kolkata,1260078
Zapopan,Mexico,MX,20.7208,-103.3911,America/Mexico_City,1257547
Yongcheng,China,CN,33.9317,116.4459,Asia/Shanghai,1256409
Yuyao,China,CN,30.0372,121.1546,Asia/Shanghai,1254032
Dayan,China,CN,26.8808,100.2208,Asia/Shanghai,1253878
Balıkesir,Turkey,TR,39.6511,27.8842,Europe/Istanbul,1250610
Brussels,Belgium,BE,50.8333,4.3333,Europe/Brussels,1249597
Laiwu,China,CN,36.1833,117.6667,Asia/Shanghai,1248636
Huazhou,China,CN,32.6832,112.079,Asia/Shanghai,1247807
Sharjah,United Arab Emirates,AE,25.3375,55.4119,Asia/Dubai,1247749
Jingling,China,CN,30.6667,113.1667,Asia/Shanghai,1247400
Kalyān,India,IN,19.25,73.15,Asia/Kolkata,1246381
Āsansol,India,IN,23.6833,86.9667,Asia/Kolkata,1243414
Suwon,"Korea, South",KR,37.2858,127.01,Asia/Seoul,1234300
Vijayavāda,India,IN,16.5167,80.6167,Asia/Kolkata,1230000
Hargeysa,Somalia,SO,9.5656,44.0606,Africa/Mogadishu,1227620
Vasai-Virar,India,IN,19.47,72.8,Asia/Kolkata,1221233
Zhuji,China,CN,29.7169,120.2314,Asia/Shanghai,1218072
Dadukou,China,CN,26.5849,101.7149,Asia/Shanghai,1214121
Lingcheng,China,CN,22.7,110.35,Asia/Shanghai,1211637
Xinyu,China,CN,27.795,114.9242,Asia/Shanghai,1202499
Nashville,United States,US,36.1715,-86.7842,America/Chicago,1201962
Qom,Iran,IR,34.64,50.8764,Asia/Tehran,1201158
Baidoa,Somalia,SO,3.1167,43.65,Africa/Mogadishu,1200000
Zhangye,China,CN,38.9355,100.4553,Asia/Shanghai,1199515
Tegucigalpa,Honduras,HN,14.1058,-87.2047,America/Tegucigalpa,1199136
Vārānasi,India,IN,25.3189,83.0128,Asia/Kolkata,1198491
Nizhniy Novgorod,Russia,RU,56.3269,44.0075,Europe/Moscow,1198245
Hiroshima,Japan,JP,34.3914,132.4519,Asia/Tokyo,1198021
Chiang Mai,Thailand,TH,18.7889,98.9833,Asia/Bangkok,1198000
Maiduguri,Nigeria,NG,11.8333,13.15,Africa/Lagos,1197497
Kalleli,India,IN,9.2,76.8833,Asia/Kolkata,1197412
Batam Centre,Indonesia,ID,1.13,104.0531,Asia/Jakarta,1196396
Rosario,Argentina,AR,-32.9575,-60.6394,America/Argentina/Cordoba,1193605
Shymkent,Kazakhstan,KZ,42.3,69.6,Asia/Almaty,1191877
Pingdu,China,CN,36.7833,119.9556,Asia/Shanghai,1191348
Bishkek,Kyrgyzstan,KG,42.8667,74.5667,Asia/Bishkek,1191000
Kingston,Jamaica,JM,17.9714,-76.7931,America/Jamaica,1190000
Rongcheng,China,CN,26.2312,104.0966,Asia/Shanghai,1189813
Doha,Qatar,QA,25.2861,51.5294,Asia/Qatar,1186023
Salt Lake City,United States,US,40.7776,-111.9311,America/Denver,1183003
Tripoli,Libya,LY,32.8976,13.1753,Africa/Tripoli,1183000
Srīnagar,India,IN,34.0911,74.8061,Asia/Kolkata,1180570
Raleigh,United States,US,35.8324,-78.6429,America/New_York,1179118
Chelyabinsk,Russia,RU,55.15,61.4,Asia/Yekaterinburg,1176770
Liaoyuan,China,CN,42.8976,125.1381,Asia/Shanghai,1176239
Malang,Indonesia,ID,-7.9689,112.6327,Asia/Jakarta,1175282
Aurangābād,India,IN,19.88,75.32,Asia/Kolkata,1175116
Yingtan,China,CN,28.2333,117.0,Asia/Shanghai,1175000
Cilacap,Indonesia,ID,-7.7167,109.017,Asia/Jakarta,1174964
Xinhualu,China,CN,34.3962,113.7249,Asia/Shanghai,1172237
Pikine,Senegal,SN,14.744,-17.4021,Africa/Dakar,1170791
Fès,Morocco,MA,34.0433,-5.0033,Africa/Casablanca,1167842
Bandar Lampung,Indonesia,ID,-5.4294,105.2625,Asia/Jakarta,1166761
Dingzhou,China,CN,38.5158,114.9845,Asia/Shanghai,1165182
Shouguang,China,CN,36.8833,118.7333,Asia/Shanghai,1163364
Lianyuan,China,CN,27.6961,111.6659,Asia/Shanghai,1162928
Rongcheng,China,CN,29.8239,112.9019,Asia/Shanghai,1162770
Dhanbād,India,IN,23.7928,86.435,Asia/Kolkata,1162472
Nay Pyi Taw,Burma,MM,19.7475,96.115,Asia/Yangon,1160242
Kaiyuan,China,CN,36.0656,113.8153,Asia/Shanghai,1160000
Aba,Nigeria,NG,5.1167,7.3667,Africa/Lagos,1160000
Amritsar,India,IN,31.6269,74.877,Asia/Kolkata,1159227
Krasnodar,Russia,RU,45.0333,38.9833,Europe/Moscow,1154885
Aden,Yemen,YE,12.8,45.0333,Asia/Aden,1154410
Samara,Russia,RU,53.1833,50.1167,Europe/Samara,1154223
Edmonton,Canada,CA,53.5344,-113.4903,America/Edmonton,1151635
Leiyang,China,CN,26.4179,112.8457,Asia/Shanghai,1151554
Yichun,China,CN,47.7235,128.8893,Asia/Shanghai,1148126
Ufa,Russia,RU,54.7261,55.9475,Asia/Yekaterinburg,1144809
Bujumbura,Burundi,BI,-3.3825,29.3611,Africa/Bujumbura,1143202
Rostov,Russia,RU,47.2225,39.71,Europe/Moscow,1143123
Maputo,Mozambique,MZ,-25.9689,32.5733,Africa/Maputo,1133200
Bukavu,Congo (Kinshasa),CD,-2.4908,28.8428,Africa/Lubumbashi,1133000
Shaoyang,China,CN,32.9387,119.8404,Asia/Shanghai,1128204
Van,Turkey,TR,38.5019,43.4167,Europe/Istanbul,1127612
Ulsan,"Korea, South",KR,35.55,129.3167,Asia/Seoul,1127553
Tbilisi,Georgia,GE,41.7225,44.7925,Asia/Tbilisi,1118035
Jiancheng,China,CN,30.3931,104.5465,Asia/Shanghai,1117265
Sanya,China,CN,18.2533,109.5036,Asia/Shanghai,1116100
Linhai,China,CN,28.8523,121.1409,Asia/Shanghai,1114146
Oslo,Norway,NO,59.9133,10.7389,Europe/Oslo,1110887
Tunis,Tunisia,TN,36.8008,10.18,Africa/Tunis,1110000
Yingchuan,China,CN,34.1511,113.4733,Asia/Shanghai,1109782
Yerevan,Armenia,AM,40.1814,44.5144,Asia/Yerevan,1106300
Mwanza,Tanzania,TZ,-2.5167,32.9,Africa/Dar_es_Salaam,1104521
Biên Hòa,Vietnam,VN,10.9508,106.8221,Asia/Ho_Chi_Minh,1104000
Maracay,Venezuela,VE,10.2469,-67.5958,America/Caracas,1102088
Omsk,Russia,RU,54.9667,73.3833,Asia/Omsk,1101367
Sevilla,Spain,ES,37.3886,-5.9956,Europe/Madrid,1100000
Richmond,United States,US,37.5295,-77.4756,America/New_York,1098457
Xibeijie,China,CN,39.737,98.5049,Asia/Shanghai,1095947
Tamale,Ghana,GH,9.4075,-0.8533,Africa/Accra,1095808
Krasnoyarsk,Russia,RU,56.0089,92.8719,Asia/Krasnoyarsk,1092851
Hanchuan,China,CN,30.652,113.8274,Asia/Shanghai,1092700
Gongzhuling,China,CN,43.5036,124.8088,Asia/Shanghai,1092692
N’Djamena,Chad,TD,12.11,15.05,Africa/Ndjamena,1092066
Dongyang,China,CN,29.2785,120.2282,Asia/Shanghai,1087950
Ubungo,Tanzania,TZ,-6.7833,39.2,Africa/Dar_es_Salaam,1086912
Marrakech,Morocco,MA,31.6295,-7.9811,Africa/Casablanca,1085330
Tongjin,"Korea, South",KR,37.2361,127.2011,Asia/Seoul,1084817
Toulouse,France,FR,43.6044,1.4433,Europe/Paris,1081726
Ezhou,China,CN,30.3972,114.8842,Asia/Shanghai,1079353
Astana,Kazakhstan,KZ,51.1333,71.4333,Asia/Almaty,1078362
Zhufeng,China,CN,36.0,119.4167,Asia/Shanghai,1078178
Nezahualcóyotl,Mexico,MX,19.3876,-98.9926,America/Mexico_City,1077208
Hāora,India,IN,22.58,88.3294,Asia/Kolkata,1077075
Xiashi,China,CN,30.5333,120.6833,Asia/Shanghai,1076199
Rānchi,India,IN,23.3556,85.3347,Asia/Kolkata,1073440
Ciudad Nezahualcóyotl,Mexico,MX,19.4006,-99.0148,America/Mexico_City,1072676
Gwalior,India,IN,26.2125,78.1775,Asia/Kolkata,1069276
Ottawa,Canada,CA,45.4247,-75.695,America/Toronto,1068821
Trujillo,Peru,PE,-8.1119,-79.0289,America/Lima,1067700
Zhongwei,China,CN,37.5139,105.1884,Asia/Shanghai,1067336
Boosaaso,Somalia,SO,11.2833,49.1833,Africa/Mogadishu,1067000
Lille,France,FR,50.6319,3.0575,Europe/Paris,1063491
Goyang,"Korea, South",KR,37.6564,126.835,Asia/Seoul,1061929
Sendai,Japan,JP,38.2682,140.8694,Asia/Tokyo,1061177
Xishan,China,CN,27.6609,113.4946,Asia/Shanghai,1060000
Barquisimeto,Venezuela,VE,10.0678,-69.3467,America/Caracas,1059092
Hegang,China,CN,47.3139,130.2775,Asia/Shanghai,1058665
Chandīgarh,India,IN,30.7364,76.7883,Asia/Kolkata,1055450
Managua,Nicaragua,NI,12.1547,-86.2737,America/Managua,1051236
Fangchenggang,China,CN,21.6,108.3,Asia/Shanghai,1046068
Voronezh,Russia,RU,51.6717,39.2106,Europe/Moscow,1041722
São Luís,Brazil,BR,-2.53,-44.3028,America/Fortaleza,1037775
Memphis,United States,US,35.1087,-89.9663,America/Chicago,1037125
Jodhpur,India,IN,26.2944,73.0278,Asia/Kolkata,1033918
Matola,Mozambique,MZ,-25.9667,32.4667,Africa/Maputo,1032197
Ogbomoso,Nigeria,NG,8.1333,4.25,Africa/Lagos,1032000
Ashgabat,Turkmenistan,TM,37.95,58.3833,Asia/Ashgabat,1030063
Wutong,China,CN,30.6326,120.5474,Asia/Shanghai,1029754
Enugu,Nigeria,NG,6.4403,7.4942,Africa/Lagos,1029400
Denizli,Turkey,TR,37.7833,29.0964,Europe/Istanbul,1027782
Perm,Russia,RU,58.0139,56.2489,Asia/Yekaterinburg,1027518
Rotterdam,Netherlands,NL,51.92,4.48,Europe/Amsterdam,1026250
Shubrā al Khaymah,Egypt,EG,30.1286,31.2422,Africa/Cairo,1025569
Wafangdian,China,CN,39.6271,121.9972,Asia/Shanghai,1024876
Zhongxiang,China,CN,31.169,112.5853,Asia/Shanghai,1022514
Monrovia,Liberia,LR,6.3106,-10.8047,Africa/Monrovia,1021762
Oklahoma City,United States,US,35.4676,-97.5136,America/Chicago,1017828
Saltillo,Mexico,MX,25.4231,-100.9919,America/Monterrey,1017806
Islamabad,Pakistan,PK,33.6989,73.0369,Asia/Karachi,1014825
Xinyi,China,CN,22.3559,110.9369,Asia/Shanghai,1014577
Thủ Đức,Vietnam,VN,10.8486,106.7721,Asia/Ho_Chi_Minh,1013795
Volgograd,Russia,RU,48.7086,44.5147,Europe/Volgograd,1012219
Odesa,Ukraine,UA,46.4775,30.7326,Europe/Kyiv,1010537
Raipur,India,IN,21.2379,81.6337,Asia/Kolkata,1010087
Changwon,"Korea, South",KR,35.2281,128.6811,Asia/Seoul,1009998
Arequipa,Peru,PE,-16.3989,-71.5369,America/Lima,1008290
Tshikapa,Congo (Kinshasa),CD,-6.4167,20.8,Africa/Lubumbashi,1006387
Warangal,India,IN,17.9756,79.6011,Asia/Kolkata,1005938
Zaoyang,China,CN,32.1287,112.7581,Asia/Shanghai,1004741
Xingyi,China,CN,25.091,104.9011,Asia/Shanghai,1004132
Shuizhai,China,CN,33.4433,114.8994,Asia/Shanghai,1003698
Kota,India,IN,25.18,75.83,Asia/Kolkata,1001694
Quetta,Pakistan,PK,30.1958,67.0172,Asia/Karachi,1001205
Bareilly,India,IN,28.364,79.415,Asia/Kolkata,1000000
Stockholm,Sweden,SE,59.3275,18.0547,Europe/Stockholm,999239
Guatemala City,Guatemala,GT,14.6417,-90.5133,America/Guatemala,994938
Bordeaux,France,FR,44.8379,-0.5795,Europe/Paris,994920
Taixing,China,CN,32.1724,120.0142,Asia/Shanghai,994445
Xingcheng,China,CN,24.1681,115.6669,Asia/Shanghai,993000
Hartford,United States,US,41.7661,-72.6834,America/New_York,990793
Lilongwe,Malawi,MW,-13.9864,33.7681,Africa/Blantyre,989318
Danyang,China,CN,31.9948,119.575,Asia/Shanghai,988900
Louisville,United States,US,38.1663,-85.6485,America/Kentucky/Louisville,988018
Jiaozhou,China,CN,36.2481,119.9625,Asia/Shanghai,987820
Luocheng,China,CN,22.7645,111.5745,Asia/Shanghai,984100
Bogor,Indonesia,ID,-6.5978,106.7993,Asia/Jakarta,982469
Zhaodong,China,CN,46.0635,125.9773,Asia/Shanghai,980000
Chiba,Japan,JP,35.6073,140.1064,Asia/Tokyo,975014
Kirkuk,Iraq,IQ,35.4667,44.4,Asia/Baghdad,975000
Xin’an,China,CN,34.3662,118.3369,Asia/Shanghai,969922
Dnipro,Ukraine,UA,48.4675,35.04,Europe/Kyiv,968502
Nārāyanganj,Bangladesh,BD,23.6167,90.5,Asia/Dhaka,967951
Gqeberha,South Africa,ZA,-33.918,25.5701,Africa/Johannesburg,967677
Xichang,China,CN,27.8983,102.2706,Asia/Shanghai,966000
Cebu City,Philippines,PH,10.293,123.902,Asia/Manila,965332
Sanhe,China,CN,39.9808,117.0701,Asia/Shanghai,965075
Guli,China,CN,28.9008,120.0284,Asia/Shanghai,964203
Fort Worth,United States,US,32.7817,-97.3474,America/Chicago,963194
Asmara,Eritrea,ER,15.3333,38.9167,Africa/Asmara,963000
Campo Grande,Brazil,BR,-20.4686,-54.6222,America/Campo_Grande,962883
Qingzhou,China,CN,36.6967,118.4797,Asia/Shanghai,960882
Maceió,Brazil,BR,-9.6658,-35.735,America/Maceio,957916
Taishan,China,CN,22.2486,112.785,Asia/Shanghai,953900
Valparaíso,Chile,CL,-33.0461,-71.6197,America/Santiago,952000
Solāpur,India,IN,17.6703,75.9011,Asia/Kolkata,951558
Freetown,Sierra Leone,SL,8.4872,-13.2356,Africa/Freetown,951000
Santo Domingo Este,Dominican Republic,DO,18.4855,-69.8734,America/Santo_Domingo,948855
Sŏngnam,"Korea, South",KR,37.4386,127.1378,Asia/Seoul,948757
Vientiane,Laos,LA,17.98,102.63,Asia/Vientiane,948487
Dushanbe,Tajikistan,TJ,38.5731,68.7864,Asia/Dushanbe,948251
Anqiu,China,CN,36.3619,119.1072,Asia/Shanghai,947723
Kermānshāh,Iran,IR,34.3167,47.0686,Asia/Tehran,946651
Bridgeport,United States,US,41.1918,-73.1954,America/New_York,945974
Sale,Morocco,MA,34.05,-6.8167,Africa/Casablanca,945101
Nice,France,FR,43.7019,7.2683,Europe/Paris,944321
Hubli,India,IN,15.3108,75.0925,Asia/Kolkata,943788
Setagaya,Japan,JP,35.6465,139.6532,Asia/Tokyo,940071
Jerusalem,Israel,IL,31.7767,35.2342,Asia/Jerusalem,936425
Khartoum North,Sudan,SD,15.6333,32.6333,Africa/Khartoum,936349
Kitakyūshū,Japan,JP,33.8834,130.8752,Asia/Tokyo,935084
Buffalo,United States,US,42.9018,-78.8487,America/New_York,934832
Aguascalientes,Mexico,MX,21.8808,-102.2961,America/Mexico_City,934424
Khulna,Bangladesh,BD,22.8167,89.55,Asia/Dhaka,928891
New Orleans,United States,US,30.0687,-89.9288,America/Chicago,928503
Chihuahua,Mexico,MX,28.6369,-106.0769,America/Chihuahua,925762
Taihe,China,CN,30.8706,105.3784,Asia/Shanghai,924531
Mysore,India,IN,12.3086,76.6531,Asia/Kolkata,920550
Taihecun,China,CN,45.768,131.0063,Asia/Shanghai,920471
Kashgar,China,CN,39.45,75.9833,Asia/Urumqi,920000
Oran,Algeria,DZ,35.6969,-0.6331,Africa/Algiers,920000
Trichinopoly,India,IN,10.8269,78.6928,Asia/Kolkata,916857
Cartagena,Colombia,CO,10.3997,-75.5144,America/Bogota,914552
Lichuan,China,CN,30.2965,108.9378,Asia/Shanghai,913700
Naucalpan de Juárez,Mexico,MX,19.4786,-99.2337,America/Mexico_City,913681
Naples,Italy,IT,40.8358,14.2486,Europe/Rome,913462
Daye,China,CN,30.1003,114.9699,Asia/Shanghai,909724
Hengzhou,China,CN,22.6896,109.2674,Asia/Shanghai,909400
Padang,Indonesia,ID,-0.9556,100.3606,Asia/Jakarta,909040
Owerri,Nigeria,NG,5.4833,7.0333,Africa/Lagos,908109
Zhuanghe,China,CN,39.6896,122.9664,Asia/Shanghai,905852
Puxi,China,CN,35.2125,114.735,Asia/Shanghai,905436
La Plata,Argentina,AR,-34.9333,-57.95,America/Argentina/Buenos_Aires,904789
Bobo-Dioulasso,Burkina Faso,BF,11.1833,-4.2833,Africa/Ouagadougou,903887
Lubango,Angola,AO,-14.9167,13.5,Africa/Luanda,903564
Quzhou,China,CN,28.9545,118.8763,Asia/Shanghai,902767
Donetsk,Ukraine,UA,48.0158,37.8028,Europe/Kyiv,901645
Hermosillo,Mexico,MX,29.075,-110.9583,America/Hermosillo,899817
Libreville,Gabon,GA,0.4078,9.4403,Africa/Libreville,899000
Wuchang,China,CN,44.9115,127.1501,Asia/Shanghai,897705
São Gonçalo,Brazil,BR,-22.8269,-43.0539,America/Sao_Paulo,896744
Feicheng,China,CN,36.186,116.772,Asia/Shanghai,894115
Macheng,China,CN,31.1817,115.0189,Asia/Shanghai,893654
Bucaramanga,Colombia,CO,7.1186,-73.1161,America/Bogota,893040
Mérida,Mexico,MX,20.97,-89.62,America/Merida,892363
Tucson,United States,US,32.1541,-110.8787,America/Phoenix,890860
Bangui,Central African Republic,CF,4.3732,18.5628,Africa/Bangui,889231
Abeokuta,Nigeria,NG,7.15,3.35,Africa/Lagos,888924
Cancún,Mexico,MX,21.1614,-86.8248,America/Cancun,888797
Dongtai,China,CN,32.8534,120.3037,Asia/Shanghai,888410
Morādābād,India,IN,28.8389,78.7769,Asia/Kolkata,887871
Antipolo,Philippines,PH,14.5886,121.1757,Asia/Manila,887399
Tabūk,Saudi Arabia,SA,28.3972,36.5789,Asia/Riyadh,886036
El Alto,Bolivia,BO,-16.5047,-68.1633,America/La_Paz,885035
Zhoushan,China,CN,29.9887,122.2049,Asia/Shanghai,882932
Afikpo,Nigeria,NG,5.8833,7.9333,Africa/Lagos,881611
As Sulaymānīyah,Iraq,IQ,35.55,45.4333,Asia/Baghdad,878146
Klang,Malaysia,MY,3.0333,101.45,Asia/Kuala_Lumpur,878000
Tiruppūr,India,IN,11.1075,77.3398,Asia/Kolkata,877778
Gaomi,China,CN,36.3833,119.75,Asia/Shanghai,877393
Jāmnagar,India,IN,22.47,70.07,Asia/Kolkata,877000
Gurgaon,India,IN,28.4667,77.0333,Asia/Kolkata,876824
Ar Ramādī,Iraq,IQ,33.4258,43.2992,Asia/Baghdad,874543
Alīgarh,India,IN,27.88,78.08,Asia/Kolkata,874408
Hai’an,China,CN,32.532,120.4604,Asia/Shanghai,874334
Jalandhar,India,IN,31.3256,75.5792,Asia/Kolkata,873725
Tyumen,Russia,RU,57.15,65.5333,Asia/Yekaterinburg,872077
Eskişehir,Turkey,TR,39.7767,30.5206,Europe/Istanbul,871187
Lhasa,China,CN,29.6458,91.1408,Asia/Shanghai,867891
Banikoara,Benin,BJ,11.3,2.4333,Africa/Porto-Novo,867463
Ipoh,Malaysia,MY,4.6,101.07,Asia/Kuala_Lumpur,866772
El Paso,United States,US,31.8476,-106.43,America/Denver,866309
Mexicali,Mexico,MX,32.636,-115.4759,America/Tijuana,862360
Ikeja,Nigeria,NG,6.6186,3.3426,Africa/Lagos,861300
Weichanglu,China,CN,37.1692,120.0176,Asia/Shanghai,859424
Taman Ria,Malaysia,MY,4.6333,101.1167,Asia/Kuala_Lumpur,858118
Portsmouth,United Kingdom,GB,50.8058,-1.0872,Europe/London,855679
Southampton,United Kingdom,GB,50.9025,-1.4042,Europe/London,855569
Pasig City,Philippines,PH,14.5605,121.0765,Asia/Manila,853050
Leping,China,CN,28.9632,117.1203,Asia/Shanghai,852800
Shache,China,CN,38.4167,77.2406,Asia/Urumqi,851374
Hailun,China,CN,47.4585,126.9632,Asia/Shanghai,850000
Cheongju,"Korea, South",KR,36.6372,127.4897,Asia/Seoul,848000
Akure,Nigeria,NG,7.25,5.195,Africa/Lagos,847903
Ilorin,Nigeria,NG,8.5,4.55,Africa/Lagos,847582
Erbil,Iraq,IQ,36.1911,44.0094,Asia/Baghdad,846000
Kathmandu,Nepal,NP,27.71,85.32,Asia/Kathmandu,845767
Chengguan,China,CN,35.5256,113.6976,Asia/Shanghai,845588
Turin,Italy,IT,45.0792,7.6761,Europe/Rome,841600
Yuci,China,CN,37.6803,112.7319,Asia/Shanghai,840000
Dehui,China,CN,44.5333,125.7,Asia/Shanghai,839786
Saratov,Russia,RU,51.53,46.035,Europe/Saratov,838042
Bhubaneshwar,India,IN,20.295,85.825,Asia/Kolkata,837737
Omaha,United States,US,41.2627,-96.0529,America/Chicago,836740
Huambo,Angola,AO,-12.7667,15.7333,Africa/Luanda,836293
Tongchuan,China,CN,34.9057,108.9422,Asia/Shanghai,834437
João Pessoa,Brazil,BR,-7.12,-34.88,America/Fortaleza,833932
Samarinda,Indonesia,ID,-0.5022,117.1536,Asia/Makassar,831460
Sakai,Japan,JP,34.5733,135.483,Asia/Tokyo,827277
Qingping,China,CN,34.538,113.3796,Asia/Shanghai,826031
Trabzon,Turkey,TR,41.005,39.7225,Europe/Istanbul,824352
Renqiu,China,CN,38.7094,116.1008,Asia/Shanghai,822455
Jos,Nigeria,NG,9.9333,8.8833,Africa/Lagos,821618
McAllen,United States,US,26.2252,-98.2467,America/Chicago,820752
Wu’an,China,CN,36.6941,114.1847,Asia/Shanghai,819000
Seberang Jaya,Malaysia,MY,5.4083,100.3696,Asia/Kuala_Lumpur,815767
Bhayandar,India,IN,19.3,72.85,Asia/Kolkata,814655
São Bernardo do Campo,Brazil,BR,-23.6939,-46.565,America/Sao_Paulo,810729
Hejian,China,CN,38.4451,116.0897,Asia/Shanghai,810306
Narela,India,IN,28.85,77.1,Asia/Kolkata,809913
Culiacán,Mexico,MX,24.7903,-107.3878,America/Mazatlan,808416
Cúcuta,Colombia,CO,7.9075,-72.5047,America/Bogota,806378
Kraków,Poland,PL,50.0614,19.9372,Europe/Warsaw,804237
Thessaloníki,Greece,GR,40.6403,22.9356,Europe/Athens,802572
Blantyre,Malawi,MW,-15.7861,35.0058,Africa/Blantyre,800264
Xigazê,China,CN,29.25,88.8833,Asia/Shanghai,798153
Qamdo,China,CN,31.1423,97.182,Asia/Shanghai,798067
Johor Bahru,Malaysia,MY,1.4556,103.7611,Asia/Kuala_Lumpur,797882
Katlehong,South Africa,ZA,-26.3333,28.15,Africa/Johannesburg,797031
Laiyang,China,CN,36.9758,120.7136,Asia/Shanghai,794986
Querétaro,Mexico,MX,20.5881,-100.3881,America/Mexico_City,794789
Qingnian,China,CN,36.8494,115.7061,Asia/Shanghai,794529
George Town,Malaysia,MY,5.4111,100.3356,Asia/Kuala_Lumpur,794313
San Pedro Sula,Honduras,HN,15.5053,-88.0251,America/Tegucigalpa,793835
Port Said,Egypt,EG,31.2625,32.3061,Africa/Cairo,791749
Niigata,Japan,JP,37.9162,139.0364,Asia/Tokyo,790646
Dresden,Germany,DE,51.0493,13.7381,Europe/Berlin,790400
Hempstead,United States,US,40.6629,-73.6089,America/New_York,790202
Hamamatsu,Japan,JP,34.7109,137.7262,Asia/Tokyo,788211
Xiangxiang,China,CN,27.7389,112.5223,Asia/Shanghai,787216
Zijinglu,China,CN,34.7513,112.9854,Asia/Shanghai,785242
Licheng,China,CN,31.4174,119.4786,Asia/Shanghai,785092
Bilbao,Spain,ES,43.2631,-2.935,Europe/Madrid,782000
Goma,Congo (Kinshasa),CD,-1.6794,29.2336,Africa/Lubumbashi,781875
Cotonou,Benin,BJ,6.3667,2.4167,Africa/Porto-Novo,780000
Korla,China,CN,41.7646,86.1527,Asia/Urumqi,779352
Qian’an,China,CN,40.0059,118.6973,Asia/Shanghai,776752
Homs,Syria,SY,34.7333,36.7167,Asia/Damascus,775404
Zouping,China,CN,36.8625,117.7424,Asia/Shanghai,774517
Birmingham,United States,US,33.5279,-86.7971,America/Chicago,773997
Bucheon,"Korea, South",KR,37.4989,126.7831,Asia/Seoul,772450
Dali,China,CN,25.6811,100.3003,Asia/Shanghai,771128
Fuyang,China,CN,30.0533,119.9519,Asia/Shanghai,771000
Khŭjand,Tajikistan,TJ,40.2794,69.6319,Asia/Dushanbe,770000
Hamhŭng,"Korea, North",KP,39.9167,127.5333,Asia/Pyongyang,768551
Vilnius,Lithuania,LT,54.6872,25.28,Europe/Vilnius,767907
Erzurum,Turkey,TR,39.9097,41.2756,Europe/Istanbul,767848
Zagreb,Croatia,HR,45.8131,15.9772,Europe/Zagreb,767131
Al ‘Ayn,United Arab Emirates,AE,24.2075,55.7447,Asia/Dubai,766936
Zaria,Nigeria,NG,11.0667,7.7,Africa/Lagos,766007
Albuquerque,United States,US,35.1054,-106.6465,America/Denver,765360
Zhongba,China,CN,31.7761,104.7406,Asia/Shanghai,762140
Bahawalpur,Pakistan,PK,29.3956,71.6722,Asia/Karachi,762111
Uberlândia,Brazil,BR,-18.9189,-48.2769,America/Sao_Paulo,761835
Kaduna,Nigeria,NG,10.5105,7.4165,Africa/Lagos,760084
Winnipeg,Canada,CA,49.8844,-97.1464,America/Winnipeg,758515
Guangshui,China,CN,31.6189,113.8229,Asia/Shanghai,755910
Baardheere,Somalia,SO,2.3447,42.2764,Africa/Mogadishu,755500
Shīshgarh,India,IN,28.72,79.32,Asia/Kolkata,753815
Maturín,Venezuela,VE,9.7423,-63.1889,America/Caracas,753254
Sizhan,China,CN,39.0099,106.3694,Asia/Shanghai,751389
Ciudad Guayana,Venezuela,VE,8.3224,-62.6897,America/Caracas,751331
Natal,Brazil,BR,-5.795,-35.2089,America/Fortaleza,751300
Jawhar,Somalia,SO,2.7833,45.5,Africa/Mogadishu,750000
Nerima,Japan,JP,35.7551,139.6585,Asia/Tokyo,749451
Santo André,Brazil,BR,-23.6533,-46.528,America/Sao_Paulo,748919
Changsha,China,CN,22.3762,112.6877,Asia/Shanghai,748777
Tulsa,United States,US,36.1283,-95.9042,America/Chicago,747529
Gaalkacyo,Somalia,SO,6.7697,47.4308,Africa/Mogadishu,745000
Dasmariñas,Philippines,PH,14.3294,120.9367,Asia/Manila,744511
Pathlaiyā,Nepal,NP,27.2005,84.9844,Asia/Kathmandu,743982
Thiruvananthapuram,India,IN,8.4875,76.9525,Asia/Kolkata,743691
Morelia,Mexico,MX,19.7028,-101.1922,America/Mexico_City,743275
Bazhou,China,CN,39.1235,116.386,Asia/Shanghai,743226
Nampula,Mozambique,MZ,-15.1167,39.2667,Africa/Maputo,743000
Pretoria,South Africa,ZA,-25.7464,28.1881,Africa/Johannesburg,741651
Cagayan de Oro,Philippines,PH,8.4833,124.65,Asia/Manila,741617
Kyaukse,Burma,MM,21.6131,96.1303,Asia/Yangon,741071
Bouaké,Côte d’Ivoire,CI,7.6833,-5.0331,Africa/Abidjan,740000
Nehe,China,CN,48.48,124.8738,Asia/Shanghai,740000
Cabinda,Angola,AO,-5.5667,12.2,Africa/Luanda,739182
Kumamoto,Japan,JP,32.803,130.7079,Asia/Tokyo,738385
Kermān,Iran,IR,30.2911,57.0678,Asia/Tehran,738374
São José dos Campos,Brazil,BR,-23.1789,-45.8869,America/Sao_Paulo,737310
Ōta-ku,Japan,JP,35.5613,139.716,Asia/Tokyo,737187
Zunhua,China,CN,40.1881,117.9593,Asia/Shanghai,737011
Zaragoza,Spain,ES,41.65,-0.8833,Europe/Madrid,736649
Orūmīyeh,Iran,IR,37.5486,45.0675,Asia/Tehran,736224
Wugang,China,CN,26.7345,110.6293,Asia/Shanghai,734870
Charleston,United States,US,32.8168,-79.9687,America/New_York,734681
Quebec City,Canada,CA,46.8139,-71.2081,America/Toronto,733156
Yanggok,"Korea, South",KR,37.6367,127.2142,Asia/Seoul,732376
Fresno,United States,US,36.783,-119.7939,America/Los_Angeles,732197
Qianxi,China,CN,27.0284,106.0327,Asia/Shanghai,732008
Ribeirão Prêto,Brazil,BR,-21.1776,-47.8101,America/Sao_Paulo,731639
Osogbo,Nigeria,NG,7.7597,4.5761,Africa/Lagos,731000
Suohe,China,CN,34.7875,113.3839,Asia/Shanghai,730135
Hamilton,Canada,CA,43.2567,-79.8692,America/Toronto,729560
Songyang,China,CN,34.4603,113.028,Asia/Shanghai,729332
Langzhong,China,CN,31.5504,105.9938,Asia/Shanghai,728935
Osasco,Brazil,BR,-23.5667,-46.7833,America/Sao_Paulo,728615
Shuangqiao,China,CN,35.0833,112.5833,Asia/Shanghai,727265
Manama,Bahrain,BH,26.2167,50.5833,Asia/Bahrain,727000
Uvira,Congo (Kinshasa),CD,-3.3953,29.1378,Africa/Lubumbashi,726000
Durgāpur,India,IN,23.55,87.32,Asia/Kolkata,726000
Sagamihara,Japan,JP,35.5714,139.3731,Asia/Tokyo,725696
An Najaf,Iraq,IQ,32.029,44.3396,Asia/Baghdad,724700
Cencheng,China,CN,22.9297,111.0186,Asia/Shanghai,724364
Sorocaba,Brazil,BR,-23.5019,-47.4578,America/Sao_Paulo,723574
General Santos,Philippines,PH,6.1167,125.1667,Asia/Manila,722059
Lingbao Chengguanzhen,China,CN,34.5221,110.8786,Asia/Shanghai,721049
Lviv,Ukraine,UA,49.8425,24.0322,Europe/Kyiv,720797
Laixi,China,CN,36.8667,120.5333,Asia/Shanghai,720103
Okayama,Japan,JP,34.6551,133.9196,Asia/Tokyo,720043
Anlu,China,CN,31.2575,113.6783,Asia/Shanghai,720000
Concepción,Chile,CL,-36.82,-73.0445,America/Santiago,719944
Mississauga,Canada,CA,43.6,-79.65,America/Toronto,717961
Suez,Egypt,EG,29.9667,32.5333,Africa/Cairo,716458
Aksu,China,CN,41.1664,80.25,Asia/Urumqi,715319
Valenzuela,Philippines,PH,14.6936,120.9656,Asia/Manila,714978
Sylhet,Bangladesh,BD,24.9,91.8667,Asia/Dhaka,712288
Jaboatão dos Guararapes,Brazil,BR,-8.1128,-35.015,America/Recife,711330
Guankou,China,CN,30.9933,103.624,Asia/Shanghai,710056
Zaporizhzhia,Ukraine,UA,47.85,35.1175,Europe/Kyiv,710052
Jianshe,China,CN,34.2189,113.7693,Asia/Shanghai,710033
Bhiwandi,India,IN,19.3,73.0667,Asia/Kolkata,709665
Latakia,Syria,SY,35.52,35.7781,Asia/Damascus,709000
Rangapukur,Bangladesh,BD,25.5206,89.2147,Asia/Dhaka,708570
Bristol,United Kingdom,GB,51.4536,-2.5975,Europe/London,707412
Sahāranpur,India,IN,29.964,77.546,Asia/Kolkata,705478
Dashiqiao,China,CN,40.6328,122.5021,Asia/Shanghai,704891
Nampo,"Korea, North",KP,38.7333,125.4,Asia/Pyongyang,703317
Tāndliānwāla,Pakistan,PK,31.0317,73.1317,Asia/Karachi,702733
Shiliguri,India,IN,26.72,88.42,Asia/Kolkata,701489
Jeju,"Korea, South",KR,33.5097,126.5219,Asia/Seoul,698358
Edogawa,Japan,JP,35.7066,139.8683,Asia/Tokyo,697932
Rochester,United States,US,43.168,-77.6162,America/New_York,697898
Ḩamāh,Syria,SY,35.135,36.75,Asia/Damascus,696863
Āvadi,India,IN,13.1147,80.1098,Asia/Kolkata,695000
Turpan,China,CN,42.95,89.1822,Asia/Urumqi,693988
Bauchi,Nigeria,NG,10.3158,9.8442,Africa/Lagos,693700
Salem,India,IN,11.65,78.1667,Asia/Kolkata,693236
Cocody,Côte d’Ivoire,CI,5.35,-3.9667,Africa/Abidjan,692583
Nansana,Uganda,UG,0.37,32.525,Africa/Kampala,692478
Miluo Chengguanzhen,China,CN,28.8049,113.0745,Asia/Shanghai,692080
Lokoja,Nigeria,NG,7.8019,6.7442,Africa/Lagos,692050
Guadalupe,Mexico,MX,25.6716,-100.2145,America/Monterrey,691931
Cuiabá,Brazil,BR,-15.5958,-56.0969,America/Cuiaba,691875
Gaizhou,China,CN,40.4019,122.3499,Asia/Shanghai,691595
Torreón,Mexico,MX,25.5439,-103.419,America/Monterrey,690193
Karbalā’,Iraq,IQ,32.6167,44.0333,Asia/Baghdad,690100
Borvāyeh-ye Al Bū ‘Azīz,Iran,IR,31.6283,48.6147,Asia/Tehran,690000
City of Parañaque,Philippines,PH,14.4978,120.9907,Asia/Manila,689992
Leling,China,CN,37.7333,117.2167,Asia/Shanghai,689867
Jui,India,IN,29.67,78.9098,Asia/Kolkata,687271
Amāldu,India,IN,29.9333,78.5333,Asia/Kolkata,687271
Kimsar,India,IN,34.5,74.5333,Asia/Kolkata,687271
Sindūri,India,IN,30.7167,77.15,Asia/Kolkata,687271
Yanji,China,CN,42.9044,129.5067,Asia/Shanghai,686136
Shishi,China,CN,24.7355,118.6434,Asia/Shanghai,685930
Gaobeidian,China,CN,39.3257,115.8678,Asia/Shanghai,685863
Shizuoka,Japan,JP,34.9756,138.3825,Asia/Tokyo,685589
Nantes,France,FR,47.2172,-1.5539,Europe/Paris,683313
Adachi,Japan,JP,35.7749,139.8044,Asia/Tokyo,682326
Macau,Macau,MO,22.19,113.5381,Asia/Macau,682100
Pontianak,Indonesia,ID,-0.0833,109.3667,Asia/Pontianak,680880
Xinmin,China,CN,41.9952,122.8224,Asia/Shanghai,680000
Rasht,Iran,IR,37.2761,49.5886,Asia/Tehran,679995
Shanhu,China,CN,29.5908,120.8176,Asia/Shanghai,679762
Zhongshu,China,CN,27.8116,106.4133,Asia/Shanghai,679624
Tasikmalaya,Indonesia,ID,-7.3258,108.2202,Asia/Jakarta,678027
Kochi,India,IN,9.9667,76.2833,Asia/Kolkata,677381
Wuxue,China,CN,29.8518,115.5539,Asia/Shanghai,676264
Cape Coral,United States,US,26.6443,-81.9957,America/New_York,675797
Gothenburg,Sweden,SE,57.7075,11.9675,Europe/Stockholm,674529
Contagem,Brazil,BR,-19.9319,-44.0539,America/Sao_Paulo,673849
Wrocław,Poland,PL,51.11,17.0325,Europe/Warsaw,673531
Acapulco de Juárez,Mexico,MX,16.8629,-99.887,America/Mexico_City,673478
Gorakhpur,India,IN,26.7611,83.3667,Asia/Kolkata,673446
Kumul,China,CN,42.8322,93.5155,Asia/Urumqi,673383
Murcia,Spain,ES,37.9833,-1.1303,Europe/Madrid,672773
Dayton,United States,US,39.7805,-84.2003,America/New_York,672634
Pinghu,China,CN,30.7005,121.0104,Asia/Shanghai,671834
Guntūr,India,IN,16.3,80.45,Asia/Kolkata,670073
Ch’ŏngjin,"Korea, North",KP,41.7833,129.7833,Asia/Pyongyang,667929
Zhuozhou,China,CN,39.4887,115.9918,Asia/Shanghai,667678
Puyang Chengguanzhen,China,CN,35.7051,115.0141,Asia/Shanghai,666322
Bulawayo,Zimbabwe,ZW,-20.1667,28.5667,Africa/Harare,665940
Villavicencio,Colombia,CO,4.1425,-73.6294,America/Bogota,664148
Jingcheng,China,CN,32.0058,120.2547,Asia/Shanghai,663408
Shulan,China,CN,44.4079,126.9429,Asia/Shanghai,663403
Tolyatti,Russia,RU,53.5167,49.4167,Europe/Samara,662683
Makhachkala,Russia,RU,42.9825,47.505,Europe/Moscow,662660
Banjarmasin,Indonesia,ID,-3.3144,114.5923,Asia/Makassar,662230
Catia La Mar,Venezuela,VE,10.6038,-67.0303,America/Caracas,661897
Cochabamba,Bolivia,BO,-17.3935,-66.157,America/La_Paz,661484
Bacoor,Philippines,PH,14.4624,120.9645,Asia/Manila,661381
Feira de Santana,Brazil,BR,-12.2669,-38.9669,America/Bahia,660806
Jalingo,Nigeria,NG,8.9195,11.3264,Africa/Lagos,660213
Sfax,Tunisia,TN,34.74,10.76,Africa/Tunis,660000
Sargodha,Pakistan,PK,32.0836,72.6711,Asia/Karachi,659862
Karaikandi,India,IN,24.8309,92.6143,Asia/Kolkata,659260
Durango,Mexico,MX,24.0228,-104.6544,America/Monterrey,658786
Ch’ŏnan,"Korea, South",KR,36.81,127.1475,Asia/Seoul,656583
Brampton,Canada,CA,43.6833,-79.7667,America/Toronto,656480
Baton Rouge,United States,US,30.442,-91.1311,America/Chicago,654357
Tlalnepantla,Mexico,MX,19.5367,-99.1947,America/Mexico_City,653410
Jeonju,"Korea, South",KR,35.8219,127.1489,Asia/Seoul,653055
Xiping,China,CN,25.5978,103.7961,Asia/Shanghai,652604
Huế,Vietnam,VN,16.4561,107.5764,Asia/Ho_Chi_Minh,652572
San Jose del Monte,Philippines,PH,14.8131,121.0464,Asia/Manila,651813
Jieshou,China,CN,33.2605,115.3618,Asia/Shanghai,650870
Tlaquepaque,Mexico,MX,20.6369,-103.3096,America/Mexico_City,650123
Osh,Kyrgyzstan,KG,40.5333,72.7833,Asia/Bishkek,650000
Łódź,Poland,PL,51.75,19.4667,Europe/Warsaw,648711
Mission Viejo,United States,US,33.6096,-117.6551,America/Los_Angeles,647990
Allentown,United States,US,40.5961,-75.4756,America/New_York,644758
Honchō,Japan,JP,35.6947,139.9826,Asia/Tokyo,644668
Zhugang,China,CN,28.1277,121.2288,Asia/Shanghai,644014
Bhāvnagar,India,IN,21.7745,72.1525,Asia/Kolkata,643382
Colorado Springs,United States,US,38.8674,-104.7605,America/Denver,643336
Jinghong,China,CN,22.0057,100.7948,Asia/Shanghai,642737
Shah Latif Town,Pakistan,PK,24.8806,67.1625,Asia/Karachi,641894
Provo,United States,US,40.2457,-111.6457,America/Denver,641732
Sihui,China,CN,23.3448,112.6956,Asia/Shanghai,640910
Ruiming,China,CN,25.8833,116.0333,Asia/Shanghai,640600
Sha Tin,Hong Kong,HK,22.3802,114.19,Asia/Hong_Kong,640000
Jurong,China,CN,31.9579,119.1595,Asia/Shanghai,639266
Petaling Jaya,Malaysia,MY,3.1073,101.6067,Asia/Kuala_Lumpur,638516
Noida,India,IN,28.57,77.32,Asia/Kolkata,637272
Xinshi,China,CN,31.0236,113.1079,Asia/Shanghai,636776
Bamenda,Cameroon,CM,5.9614,10.1517,Africa/Douala,636000
Las Palmas,Spain,ES,28.0997,-15.4133,Atlantic/Canary,635000
Comilla,Bangladesh,BD,23.45,91.2,Asia/Dhaka,634654
Mushin,Nigeria,NG,6.5333,3.35,Africa/Lagos,633543
Jin’e,China,CN,29.3395,105.2868,Asia/Shanghai,633210
Bhāngar,India,IN,22.58,88.42,Asia/Kolkata,632107
Benghazi,Libya,LY,32.1167,20.0667,Africa/Tripoli,631555
Chuxiong,China,CN,25.0461,101.5436,Asia/Shanghai,631530
Düsseldorf,Germany,DE,51.2256,6.7767,Europe/Berlin,631217
Aracaju,Brazil,BR,-10.9111,-37.0717,America/Maceio,630932
Ogden,United States,US,41.2279,-111.9682,America/Denver,630643
Palermo,Italy,IT,38.1157,13.3613,Europe/Rome,630167
Qingzhen,China,CN,26.5555,106.4646,Asia/Shanghai,629088
Tondo,Philippines,PH,14.617,120.967,Asia/Manila,628106
Salta,Argentina,AR,-24.7883,-65.4106,America/Argentina/Salta,627704
Knoxville,United States,US,35.9692,-83.9496,America/New_York,627090
Glasgow,United Kingdom,GB,55.8611,-4.25,Europe/London,626410
Luocheng,China,CN,30.9793,104.28,Asia/Shanghai,626132
Namangan,Uzbekistan,UZ,40.9953,71.6725,Asia/Tashkent,626120
Bhilai,India,IN,21.21,81.38,Asia/Kolkata,625700
Kitwe,Zambia,ZM,-12.8208,28.2119,Africa/Lusaka,625000
Mangalore,India,IN,12.8717,74.8425,Asia/Kolkata,623841
Meilan,China,CN,19.937,110.491,Asia/Shanghai,623667
Ansan,"Korea, South",KR,37.3236,126.8219,Asia/Seoul,623256
Chitāi,India,IN,24.0167,79.1333,Asia/Kolkata,622506
Khatyāri,India,IN,29.5944,79.6418,Asia/Kolkata,622506
Dhaulra,India,IN,29.67,79.577,Asia/Kolkata,622506
Grand Rapids,United States,US,42.9619,-85.6562,America/Detroit,622168
Qufu,China,CN,35.6,116.9833,Asia/Shanghai,621971
Al Manşūrah,Egypt,EG,31.05,31.3833,Africa/Cairo,621953
Barnaul,Russia,RU,53.3567,83.7872,Asia/Barnaul,621598
Leipzig,Germany,DE,51.3394,12.3711,Europe/Berlin,619879
Ḩalwān,Egypt,EG,29.8493,31.3327,Africa/Cairo,619293
Tân An,Vietnam,VN,10.905,106.6994,Asia/Ho_Chi_Minh,618984
Port-Bouët,Côte d’Ivoire,CI,5.2667,-3.9,Africa/Abidjan,618795
Pietermaritzburg,South Africa,ZA,-29.6009,30.3796,Africa/Johannesburg,618536
Meihekou,China,CN,42.5279,125.678,Asia/Shanghai,618251
Al Ḩudaydah,Yemen,YE,14.8022,42.9511,Asia/Aden,617871
Joinvile,Brazil,BR,-26.3039,-48.8458,America/Sao_Paulo,616317
Izhevsk,Russia,RU,56.85,53.2167,Europe/Samara,616297
Riga,Latvia,LV,56.9475,24.1069,Europe/Riga,615764
Khabarovsk,Russia,RU,48.4833,135.0667,Asia/Vladivostok,615600
Las Piñas City,Philippines,PH,14.45,120.9833,Asia/Manila,615549
Ta‘izz,Yemen,YE,13.5789,44.0219,Asia/Aden,615467
Chimalhuacán,Mexico,MX,19.4375,-98.9542,America/Mexico_City,614453
Kandahār,Afghanistan,AF,31.6207,65.7159,Asia/Kabul,614254
Serang,Indonesia,ID,-6.12,106.1503,Asia/Jakarta,613356
Ulyanovsk,Russia,RU,54.3167,48.3667,Europe/Ulyanovsk,612516
Jambi,Indonesia,ID,-1.6288,103.6082,Asia/Jakarta,612162
Columbia,United States,US,34.0378,-80.9036,America/New_York,610536
Zhangshu,China,CN,28.0667,115.5375,Asia/Shanghai,610424
Calicut,India,IN,11.2478,75.7803,Asia/Kolkata,609224
Wuppertal,Germany,DE,51.2667,7.1833,Europe/Berlin,608000
Kuantan,Malaysia,MY,3.8167,103.3333,Asia/Kuala_Lumpur,607778
Gold Coast,Australia,AU,-28.0167,153.4,Australia/Brisbane,607665
Yan’an Beilu,China,CN,44.0222,87.2961,Asia/Urumqi,607441
Pyeongtaek,"Korea, South",KR,36.9947,127.0889,Asia/Seoul,607435
Albany,United States,US,42.6664,-73.7987,America/New_York,607238
Cuttack,India,IN,20.45,85.8667,Asia/Kolkata,606007
Ar Rayyān,Qatar,QA,25.2919,51.4244,Asia/Qatar,605712
Irkutsk,Russia,RU,52.2892,104.28,Asia/Irkutsk,605708
Malanje,Angola,AO,-9.5469,16.3387,Africa/Luanda,604215
Kryvyi Rih,Ukraine,UA,47.91,33.39,Europe/Kyiv,603904
Djibouti,Djibouti,DJ,11.595,43.1481,Africa/Djibouti,603900
Tianchang,China,CN,32.6853,119.0041,Asia/Shanghai,603780
San Miguel de Tucumán,Argentina,AR,-26.8167,-65.2167,America/Argentina/Tucuman,601888
Meknès,Morocco,MA,33.8833,-5.55,Africa/Casablanca,601000
Bacolod,Philippines,PH,10.6677,122.9533,Asia/Manila,600783
Garoua,Cameroon,CM,9.3,13.4,Africa/Douala,600000
Bafoussam,Cameroon,CM,5.4667,10.4167,Africa/Douala,600000
Haifa,Israel,IL,32.8192,34.9992,Asia/Jerusalem,600000
Tumkūr,India,IN,13.3422,77.1017,Asia/Kolkata,599078
Málaga,Spain,ES,36.7167,-4.4167,Europe/Madrid,599063
Uíge,Angola,AO,-7.6087,15.0613,Africa/Luanda,599000
Balikpapan,Indonesia,ID,-1.1489,116.9031,Asia/Makassar,598043
Durban,South Africa,ZA,-29.8583,31.025,Africa/Johannesburg,595061
Kawaguchi,Japan,JP,35.8042,139.7197,Asia/Tokyo,595011
Kagoshima,Japan,JP,31.5968,130.5571,Asia/Tokyo,593754
Mar del Plata,Argentina,AR,-38.0,-57.55,America/Argentina/Buenos_Aires,593337
Irapuato,Mexico,MX,20.6742,-101.3475,America/Mexico_City,592953
Al Maḩallah al Kubrá,Egypt,EG,30.9667,31.1667,Africa/Cairo,592573
Bielefeld,Germany,DE,52.0167,8.5333,Europe/Berlin,591862
Sialkot City,Pakistan,PK,32.5,74.5333,Asia/Karachi,591668
Vladivostok,Russia,RU,43.115,131.8853,Asia/Vladivostok,591628
Pereira,Colombia,CO,4.8143,-75.6946,America/Bogota,590554
Gaza,Gaza Strip,XG,31.5069,34.456,Asia/Gaza,590481
Reynosa,Mexico,MX,26.0922,-98.2778,America/Matamoros,589466
Zāhedān,Iran,IR,29.4929,60.8503,Asia/Tehran,587730
Florianópolis,Brazil,BR,-27.5933,-48.553,America/Sao_Paulo,587486
Essen,Germany,DE,51.4508,7.0131,Europe/Berlin,586608
Cimahi,Indonesia,ID,-6.88,107.5385,Asia/Jakarta,586580
Wenlan,China,CN,23.3989,103.3631,Asia/Shanghai,585976
Itabashi,Japan,JP,35.7512,139.7092,Asia/Tokyo,584483
Biñan,Philippines,PH,14.3333,121.0833,Asia/Manila,584479
Shah Alam,Malaysia,MY,3.0833,101.5333,Asia/Kuala_Lumpur,584340
Botou,China,CN,38.074,116.57,Asia/Shanghai,584308
Suginami-ku,Japan,JP,35.6995,139.6364,Asia/Tokyo,583609
Londrina,Brazil,BR,-23.31,-51.1628,America/Sao_Paulo,581382
Port Sudan,Sudan,SD,19.6158,37.2164,Africa/Khartoum,579942
Serra,Brazil,BR,-20.1289,-40.3078,America/Sao_Paulo,579720
Tuxtla,Mexico,MX,16.7531,-93.1156,America/Mexico_City,578830
Dehra Dūn,India,IN,30.318,78.029,Asia/Kolkata,578420
Bremen,Germany,DE,53.0758,8.8072,Europe/Berlin,577026
Mālegaon,India,IN,20.5497,74.5347,Asia/Kolkata,576642
Hachiōji,Japan,JP,35.6664,139.316,Asia/Tokyo,575721
City of Calamba,Philippines,PH,14.2167,121.1667,Asia/Manila,575046
Tiparpur,India,IN,30.3707,77.7757,Asia/Kolkata,574840
Lachhman Garhi,India,IN,30.3164,77.9886,Asia/Kolkata,574840
Premnagar,India,IN,30.3331,77.9608,Asia/Kolkata,574840
Lanxi,China,CN,29.2167,119.4722,Asia/Shanghai,574801
Iloilo,Philippines,PH,10.7,122.5667,Asia/Manila,574000
Puente Alto,Chile,CL,-33.6167,-70.5833,America/Santiago,573935
Rabat,Morocco,MA,34.0211,-6.8414,Africa/Casablanca,572717
Nakuru,Kenya,KE,-0.2833,36.0667,Africa/Nairobi,570674
Lingyuan,China,CN,41.2407,119.3957,Asia/Shanghai,570660
Des Moines,United States,US,41.5725,-93.6105,America/Chicago,570091
Tonalá,Mexico,MX,20.6233,-103.2456,America/Mexico_City,569913
Irbid,Jordan,JO,32.5556,35.85,Asia/Amman,569068
Surrey,Canada,CA,49.19,-122.8489,America/Vancouver,568322
Mazār-e Sharīf,Afghanistan,AF,36.7,67.1167,Asia/Kabul,568013
Callao,Peru,PE,-12.0522,-77.1392,America/Lima,567702
Yaroslavl,Russia,RU,57.6264,39.8933,Europe/Moscow,567443
New Haven,United States,US,41.3113,-72.9246,America/New_York,567250
Chisinau,Moldova,MD,47.0228,28.8353,Europe/Chisinau,567038
Bakersfield,United States,US,35.3529,-119.0359,America/Los_Angeles,566351
Shenzhou,China,CN,38.0005,115.5541,Asia/Shanghai,566087
Antwerp,Belgium,BE,51.2206,4.4003,Europe/Brussels,565039
Bokaro Steel City,India,IN,23.67,86.15,Asia/Kolkata,563417
Asyūţ,Egypt,EG,27.1869,31.1714,Africa/Cairo,562061
Bello,Colombia,CO,6.3319,-75.5581,America/Bogota,561955
Kolhāpur,India,IN,16.7,74.2333,Asia/Kolkata,561489
El Obeid,Sudan,SD,13.1833,30.2167,Africa/Khartoum,560471
Nava Raipur,India,IN,21.161,81.787,Asia/Kolkata,560000
Genoa,Italy,IT,44.4072,8.934,Europe/Rome,558745
Ensenada,Mexico,MX,31.8578,-116.6058,America/Tijuana,557430
Wuhai,China,CN,39.6844,106.8158,Asia/Shanghai,556621
Herāt,Afghanistan,AF,34.3419,62.2031,Asia/Kabul,556205
Uyo,Nigeria,NG,5.05,7.9333,Africa/Lagos,554906
Hamadān,Iran,IR,34.8065,48.5162,Asia/Tehran,554406
Palm Bay,United States,US,27.9631,-80.6593,America/New_York,553332
Fuding,China,CN,27.2,120.2,Asia/Shanghai,553132
Raurkela,India,IN,22.2492,84.8828,Asia/Kolkata,552970
Morbi,India,IN,22.8167,70.8333,Asia/Kolkata,552801
Morbi,India,IN,32.336,76.0601,Asia/Kolkata,552801
Rājshāhi,Bangladesh,BD,24.3667,88.6,Asia/Dhaka,552791
Chiclayo,Peru,PE,-6.7717,-79.8383,America/Lima,552508
Muntinlupa City,Philippines,PH,14.3833,121.05,Asia/Manila,552225
Surakarta,Indonesia,ID,-7.5667,110.8167,Asia/Jakarta,552118
Ajmer,India,IN,26.468,74.639,Asia/Kolkata,551101
Braunschweig,Germany,DE,52.2692,10.5211,Europe/Berlin,551000
Nānded,India,IN,19.15,77.3333,Asia/Kolkata,550439
Palma,Spain,ES,39.5667,2.6497,Europe/Madrid,550000
Rustenburg,South Africa,ZA,-25.6667,27.2336,Africa/Johannesburg,549575
Amrāvati,India,IN,20.9333,77.75,Asia/Kolkata,549370
Lisbon,Portugal,PT,38.7122,-9.134,Europe/Lisbon,548703
Huanghua,China,CN,38.371,117.3329,Asia/Shanghai,548507
The Hague,Netherlands,NL,52.08,4.31,Europe/Amsterdam,548320
Naberezhnyye Chelny,Russia,RU,55.7149,52.3697,Europe/Moscow,548221
Hannover,Germany,DE,52.3744,9.7386,Europe/Berlin,548186
Andijon,Uzbekistan,UZ,40.7833,72.3506,Asia/Tashkent,547800
Manchester,United Kingdom,GB,53.479,-2.2452,Europe/London,547627
Nellore,India,IN,14.4333,79.9667,Asia/Kolkata,547621
Poznań,Poland,PL,52.4083,16.9336,Europe/Warsaw,546859
Samarkand,Uzbekistan,UZ,39.6547,66.9758,Asia/Samarkand,546303
Xingcheng,China,CN,40.6189,120.7205,Asia/Shanghai,546176
Ibagué,Colombia,CO,4.4378,-75.2006,America/Bogota,546003
Kaiyuan,China,CN,42.538,124.0371,Asia/Shanghai,545624
Sungai Petani,Malaysia,MY,5.6469,100.4878,Asia/Kuala_Lumpur,544851
Tomsk,Russia,RU,56.4886,84.9522,Asia/Tomsk,544566
Valledupar,Colombia,CO,10.4603,-73.2597,America/Bogota,544134
Fengcheng,China,CN,40.4543,124.0646,Asia/Shanghai,543933
Luofeng,China,CN,37.359,120.396,Asia/Shanghai,543127
Kemerovo,Russia,RU,55.3333,86.0667,Asia/Novokuznetsk,542928
Ghulja,China,CN,43.9635,81.5221,Asia/Urumqi,542507
Ixtapaluca,Mexico,MX,19.3186,-98.8822,America/Mexico_City,542211
Heroica Matamoros,Mexico,MX,25.8797,-97.5042,America/Matamoros,541979
Mbeya,Tanzania,TZ,-8.9,33.45,Africa/Dar_es_Salaam,541603
An Nāşirīyah,Iraq,IQ,31.0439,46.2575,Asia/Baghdad,541600
Xiangyang,China,CN,34.2999,108.4816,Asia/Shanghai,541554
Al Ḩillah,Iraq,IQ,32.4833,44.4333,Asia/Baghdad,541034
Juiz de Fora,Brazil,BR,-21.7642,-43.3503,America/Sao_Paulo,540756
Panshi,China,CN,42.9392,126.0561,Asia/Shanghai,539804
Santa Cruz,Spain,ES,28.4667,-16.25,Atlantic/Canary,538000
Agadir,Morocco,MA,30.4214,-9.5831,Africa/Casablanca,538000
Veracruz,Mexico,MX,19.1903,-96.1533,America/Mexico_City,537952
Chang’an,China,CN,29.4761,113.448,Asia/Shanghai,537500
Akron,United States,US,41.0798,-81.5219,America/New_York,537241
Orenburg,Russia,RU,51.7667,55.1,Asia/Yekaterinburg,536515
Leeds,United Kingdom,GB,53.7975,-1.5436,Europe/London,536280
Abū Ţisht,Egypt,EG,26.0981,32.0936,Africa/Cairo,536016
Kassala,Sudan,SD,15.45,36.4,Africa/Khartoum,536009
Pasir Gudang,Malaysia,MY,1.45,103.89,Asia/Kuala_Lumpur,534659
Kimhae,"Korea, South",KR,35.2342,128.8811,Asia/Seoul,534124
Gulbarga,India,IN,17.3333,76.8333,Asia/Kolkata,533587
Concord,United States,US,37.9722,-122.0016,America/Los_Angeles,531305
Heshan,China,CN,22.7697,112.9578,Asia/Shanghai,530684
Beira,Mozambique,MZ,-19.8333,34.85,Africa/Maputo,530604
Kuqa,China,CN,41.7152,82.9604,Asia/Urumqi,530328
Balashikha,Russia,RU,55.8,37.95,Europe/Moscow,530311
Duyun,China,CN,26.2672,107.5143,Asia/Shanghai,529688
Yazd,Iran,IR,31.8972,54.3675,Asia/Tehran,529673
Ardabīl,Iran,IR,38.25,48.3,Asia/Tehran,529374
Touba,Senegal,SN,14.8665,-15.8994,Africa/Dakar,529176
Bīkaner,India,IN,28.0181,73.3169,Asia/Kolkata,529007
Novokuznetsk,Russia,RU,53.75,87.1167,Asia/Novokuznetsk,528747
Kūstī,Sudan,SD,13.1667,32.6667,Africa/Khartoum,528458
Ndola,Zambia,ZM,-12.9689,28.6325,Africa/Lusaka,528330
Ikorodu,Nigeria,NG,6.6264,3.5517,Africa/Lagos,527917
Mixco,Guatemala,GT,14.6338,-90.6146,America/Guatemala,527828
Himeji,Japan,JP,34.8152,134.6854,Asia/Tokyo,527596
Ailan Mubage,China,CN,43.9167,81.3167,Asia/Urumqi,526745
Bandar ‘Abbās,Iran,IR,27.1864,56.2808,Asia/Tehran,526648
Tirana,Albania,AL,41.3283,19.8181,Europe/Tirane,526017
Santa Teresa del Tuy,Venezuela,VE,10.2333,-66.65,America/Caracas,525321
Caxias do Sul,Brazil,BR,-29.1678,-51.1789,America/Sao_Paulo,523716
Kōtō-ku,Japan,JP,35.6728,139.8173,Asia/Tokyo,523419
Ciudad Apodaca,Mexico,MX,25.7817,-100.1886,America/Monterrey,523370
Kitchener,Canada,CA,43.4186,-80.4728,America/Toronto,522888
Yucheng,China,CN,36.9329,116.6403,Asia/Shanghai,522878
Agartala,India,IN,23.8333,91.2667,Asia/Kolkata,522613
Soacha,Colombia,CO,4.5781,-74.2144,America/Bogota,522442
Maipú,Chile,CL,-33.5167,-70.7667,America/Santiago,521627
Arāk,Iran,IR,34.095,49.6981,Asia/Tehran,520944
Pohang,"Korea, South",KR,36.0322,129.365,Asia/Seoul,520305
Luanzhou,China,CN,39.741,118.704,Asia/Shanghai,520102
Anda,China,CN,46.4078,125.3252,Asia/Shanghai,520000
Blida,Algeria,DZ,36.4722,2.8333,Africa/Algiers,520000
Bắc Ninh,Vietnam,VN,21.1861,106.0763,Asia/Bangkok,520000
Ryazan,Russia,RU,54.63,39.7425,Europe/Moscow,519315
Al Fayyūm,Egypt,EG,29.3,30.8333,Africa/Cairo,519047
Wichita,United States,US,37.6895,-97.3443,America/Chicago,519036
Utsunomiya,Japan,JP,36.5551,139.8826,Asia/Tokyo,518197
Sheffield,United Kingdom,GB,53.3808,-1.4703,Europe/London,518090
Chānda,India,IN,19.95,79.3,Asia/Kolkata,518000
Porto Velho,Brazil,BR,-8.7619,-63.9039,America/Porto_Velho,517709
Makurdi,Nigeria,NG,7.7306,8.5361,Africa/Lagos,517342
Qaraghandy,Kazakhstan,KZ,49.8,73.1167,Asia/Almaty,515632
Ujjain,India,IN,23.1828,75.7772,Asia/Kolkata,515215
Orai,India,IN,25.98,79.47,Asia/Kolkata,515000
Beining,China,CN,41.5961,121.7928,Asia/Shanghai,514898
Sihŭng,"Korea, South",KR,37.3803,126.803,Asia/Seoul,514274
Liverpool,United Kingdom,GB,53.4072,-2.9917,Europe/London,513441
Benguela,Angola,AO,-12.58,13.4078,Africa/Luanda,512886
Cuito,Angola,AO,-12.3833,16.9333,Africa/Luanda,512706
Yicheng,China,CN,31.7117,112.2551,Asia/Shanghai,512530
Sodo,Ethiopia,ET,6.86,37.76,Africa/Addis_Ababa,512498
Mesa,United States,US,33.4015,-111.7178,America/Phoenix,511764
Al ‘Amārah,Iraq,IQ,31.8333,47.15,Asia/Baghdad,511500
Carrefour,Haiti,HT,18.5333,-72.4,America/Port-au-Prince,511345
Harrisburg,United States,US,40.2752,-76.8843,America/New_York,510827
Encheng,China,CN,22.1879,112.3131,Asia/Shanghai,509700
Linghai,China,CN,41.1676,121.3558,Asia/Shanghai,508079
Kenitra,Morocco,MA,34.25,-6.5833,Africa/Casablanca,507736
Newcastle,South Africa,ZA,-27.7464,29.9328,Africa/Johannesburg,507710
Hải Dương,Vietnam,VN,20.9399,106.3309,Asia/Bangkok,507469
Jhānsi,India,IN,25.4486,78.5696,Asia/Kolkata,507000
Matsuyama,Japan,JP,33.8392,132.7656,Asia/Tokyo,506743
Oujda-Angad,Morocco,MA,34.6867,-1.9114,Africa/Casablanca,506224
Ulhāsnagar,India,IN,19.2167,73.15,Asia/Kolkata,506098
Santiago de Cuba,Cuba,CU,20.0217,-75.8294,America/Havana,506037
Santa Marta,Colombia,CO,11.2361,-74.2017,America/Bogota,505915
Nagqu,China,CN,31.4766,92.0569,Asia/Shanghai,504838
São José do Rio Prêto,Brazil,BR,-20.82,-49.3789,America/Sao_Paulo,504166
Duisburg,Germany,DE,51.4322,6.7611,Europe/Berlin,503707
Granada,Spain,ES,37.175,-3.6,Europe/Madrid,502561
Jammu,India,IN,32.7333,74.85,Asia/Kolkata,502197
Ile-Ife,Nigeria,NG,7.4667,4.5667,Africa/Lagos,501952
Chauddagram,Bangladesh,BD,23.22,91.3,Asia/Dhaka,501815
Mazatlán,Mexico,MX,23.2167,-106.4083,America/Mazatlan,501441
Hotan,China,CN,37.1012,79.9327,Asia/Urumqi,501028
Juba,South Sudan,SS,4.8539,31.5825,Africa/Juba,500088
Nenjiang,China,CN,49.175,125.219,Asia/Shanghai,500000
Tuticorin,India,IN,8.7833,78.1333,Asia/Kolkata,500000
Asaba,Nigeria,NG,6.1833,6.75,Africa/Lagos,500000
Sukkur,Pakistan,PK,27.6995,68.8673,Asia/Karachi,499900
Homyel’,Belarus,BY,52.4417,30.9833,Europe/Minsk,499853
Hsinchu,Taiwan,TW,24.8047,120.9714,Asia/Taipei,499348
Taozhou,China,CN,30.8956,119.411,Asia/Shanghai,499132
Hongjiang,China,CN,27.1167,109.95,Asia/Shanghai,498100
Lapu-Lapu City,Philippines,PH,10.3127,123.9488,Asia/Manila,497813
Matsudo,Japan,JP,35.7876,139.9032,Asia/Tokyo,497514
Cheboksary,Russia,RU,56.1333,47.25,Europe/Moscow,497061
Purnea,India,IN,25.78,87.47,Asia/Kolkata,496830
Imus,Philippines,PH,14.4297,120.9367,Asia/Manila,496794
Niterói,Brazil,BR,-22.8833,-43.1036,America/Sao_Paulo,496696
Worcester,United States,US,42.2705,-71.8079,America/New_York,496386
Beipiao,China,CN,41.802,120.7621,Asia/Shanghai,496164
Dengtacun,China,CN,41.4237,123.3203,Asia/Shanghai,496122
Zhijiang,China,CN,30.4271,111.7506,Asia/Shanghai,495995
Staten Island,United States,US,40.5834,-74.1496,America/New_York,495747
Chengjiao,China,CN,35.4043,114.0593,Asia/Shanghai,495744
Likasi,Congo (Kinshasa),CD,-10.9833,26.7333,Africa/Lubumbashi,495000
Muzaffarnagar,India,IN,29.4994,78.499,Asia/Kolkata,494792
Jiangshan,China,CN,28.7392,118.6228,Asia/Shanghai,494412
Jiangshandicun,China,CN,28.7412,118.6225,Asia/Shanghai,494412
Toledo,United States,US,41.6638,-83.5827,America/New_York,494010
Karīmnagar,India,IN,18.4367,79.1322,Asia/Kolkata,493997
Port St. Lucie,United States,US,27.2796,-80.3884,America/New_York,493825
Nyala,Sudan,SD,12.05,24.8833,Africa/Khartoum,492984
Ichikawa,Japan,JP,35.7284,139.9085,Asia/Tokyo,492749
Villa Nueva,Guatemala,GT,14.5314,-90.5964,America/Guatemala,492480
Bissau,Guinea-Bissau,GW,11.86,-15.5833,Africa/Bissau,492004
Kota Bharu,Malaysia,MY,6.1333,102.25,Asia/Kuala_Lumpur,491237
Yuanping,China,CN,38.7299,112.7134,Asia/Shanghai,491213
Higashi-ōsaka,Japan,JP,34.6794,135.6009,Asia/Tokyo,490819
Larkana,Pakistan,PK,27.56,68.2264,Asia/Karachi,490508
Karamay,China,CN,45.5928,84.8711,Asia/Urumqi,490348
‘Ajmān,United Arab Emirates,AE,25.3994,55.4797,Asia/Dubai,490035
Vinh,Vietnam,VN,18.6733,105.6922,Asia/Bangkok,490000
Ciudad López Mateos,Mexico,MX,19.5592,-99.2833,America/Mexico_City,489937
Brookhaven,United States,US,40.832,-72.9517,America/New_York,489810
Yueqing,China,CN,28.1188,120.9621,Asia/Shanghai,488980
Kaliningrad,Russia,RU,54.7167,20.5,Europe/Kaliningrad,488690
Belgaum,India,IN,15.8569,74.5044,Asia/Kolkata,488157
Edinburgh,United Kingdom,GB,55.95,-3.1833,Europe/London,488050
Penza,Russia,RU,53.2,45.0,Europe/Moscow,487978
Gdańsk,Poland,PL,54.3483,18.654,Europe/Warsaw,487834
Nishinomiya-hama,Japan,JP,34.7376,135.3417,Asia/Tokyo,487010
Kawachichō,Japan,JP,34.6964,135.601,Asia/Tokyo,486464
Windhoek,Namibia,NA,-22.57,17.0836,Africa/Windhoek,486169
Bunia,Congo (Kinshasa),CD,1.5667,30.25,Africa/Lubumbashi,486000
Mingguang,China,CN,32.7816,117.9899,Asia/Shanghai,485627
Sevastopol,Ukraine,UA,44.605,33.5225,Europe/Simferopol,485386
Garoowe,Somalia,SO,8.4,48.4833,Africa/Mogadishu,485000
Gaoping,China,CN,35.7911,112.9259,Asia/Shanghai,484862
Vellore,India,IN,12.9333,79.1333,Asia/Kolkata,484690
Dunhua,China,CN,43.3667,128.2333,Asia/Shanghai,483811
Lianran,China,CN,24.9211,102.4778,Asia/Shanghai,483753
Campos,Brazil,BR,-21.7523,-41.3304,America/Sao_Paulo,483540
Jamtola,India,IN,29.7562,80.0339,Asia/Kolkata,483439
Lipetsk,Russia,RU,52.6167,39.6,Europe/Moscow,483040
Potiskum,Nigeria,NG,11.7092,11.0694,Africa/Lagos,483000
General Trias,Philippines,PH,14.3833,120.8833,Asia/Manila,482453
Bratislava,Slovakia,SK,48.1447,17.1128,Europe/Bratislava,480902
Valletta,Malta,MT,35.8978,14.5125,Europe/Malta,480134
Kolwezi,Congo (Kinshasa),CD,-10.7167,25.4667,Africa/Lubumbashi,480000
Ananindeua,Brazil,BR,-1.3658,-48.3719,America/Belem,478778
East London,South Africa,ZA,-33.0175,27.9047,Africa/Johannesburg,478676
Rouen,France,FR,49.4431,1.1025,Europe/Paris,478593
Jiannan,China,CN,31.3446,104.1994,Asia/Shanghai,477868
Chiniot,Pakistan,PK,31.7167,72.9833,Asia/Karachi,477781
Eldoret,Kenya,KE,0.5167,35.2833,Africa/Nairobi,477716
Xiaoyi,China,CN,37.1449,111.7718,Asia/Shanghai,477289
Tungi,Bangladesh,BD,23.8833,90.4,Asia/Dhaka,476350
Nangong,China,CN,37.3606,115.3803,Asia/Shanghai,476096
Kirov,Russia,RU,58.6,49.65,Europe/Kirov,475871
Kurashiki,Japan,JP,34.5851,133.7721,Asia/Tokyo,474862
Ōita,Japan,JP,33.1883,131.5783,Asia/Tokyo,474804
Worthing,United Kingdom,GB,50.8147,-0.3714,Europe/London,474485
Gaya,India,IN,24.75,85.0167,Asia/Kolkata,474093
Shekhupura,Pakistan,PK,31.7083,74.0,Asia/Karachi,473129
Piura,Peru,PE,-5.2008,-80.6253,America/Lima,473025
Vila Velha,Brazil,BR,-20.3364,-40.2936,America/Sao_Paulo,472762
Ar Ruşayfah,Jordan,JO,32.0178,36.0464,Asia/Amman,472604
Laohekou,China,CN,32.3849,111.6695,Asia/Shanghai,471482
Morogoro,Tanzania,TZ,-6.8242,37.6633,Africa/Dar_es_Salaam,471409
San Juan,Argentina,AR,-31.5375,-68.5364,America/Argentina/San_Juan,471389
Marikina City,Philippines,PH,14.65,121.1,Asia/Manila,471323
Madison,United States,US,43.0822,-89.393,America/Chicago,470689
Kissimmee,United States,US,28.3041,-81.4169,America/New_York,470667
Mbandaka,Congo (Kinshasa),CD,0.0486,18.2603,Africa/Kinshasa,470307
Mykolaiv,Ukraine,UA,46.975,31.995,Europe/Kyiv,470011
Fujin,China,CN,47.2489,132.0341,Asia/Shanghai,470000
Beian,China,CN,48.2395,126.5037,Asia/Shanghai,470000
Ba‘qūbah,Iraq,IQ,33.7447,44.6436,Asia/Baghdad,467900
Buraydah,Saudi Arabia,SA,26.3333,43.9667,Asia/Riyadh,467410
Reno,United States,US,39.5497,-119.8483,America/Los_Angeles,466706
Kupang,Indonesia,ID,-10.1633,123.5778,Asia/Makassar,466632
Tula,Russia,RU,54.2,37.6167,Europe/Moscow,466609
Little Rock,United States,US,34.7256,-92.3577,America/Chicago,466334
Ambattūr,India,IN,13.0983,80.1622,Asia/Kolkata,466205
Nakhon Ratchasima,Thailand,TH,14.9736,102.0831,Asia/Bangkok,466098
Tân Uyên,Vietnam,VN,11.0609,106.799,Asia/Ho_Chi_Minh,466053
Astrakhan,Russia,RU,46.35,48.035,Europe/Astrakhan,465990
Mandaluyong City,Philippines,PH,14.5833,121.0333,Asia/Manila,465902
Constantine,Algeria,DZ,36.365,6.6147,Africa/Algiers,465138
Jūnāgadh,India,IN,21.52,70.47,Asia/Kolkata,465000
Longjiang,China,CN,27.582,120.5488,Asia/Shanghai,464732
Denton,United States,US,33.2175,-97.1418,America/Chicago,464461
Leicester,United Kingdom,GB,52.6361,-1.1331,Europe/London,464395
Rushan,China,CN,36.9,121.5,Asia/Shanghai,464078
Jinchang,China,CN,38.5168,102.1866,Asia/Shanghai,464050
Uijeongbu,"Korea, South",KR,37.7486,127.0389,Asia/Seoul,463324
Angeles City,Philippines,PH,15.147,120.5889,Asia/Manila,462928
Kanazawa,Japan,JP,36.5611,136.6565,Asia/Tokyo,462479
Spokane,United States,US,47.6671,-117.433,America/Los_Angeles,462286
Asunción,Paraguay,PY,-25.28,-57.6344,America/Asuncion,462241
Manado,Indonesia,ID,1.4931,124.8413,Asia/Makassar,461636
Jalgaon,India,IN,21.0167,75.5667,Asia/Kolkata,460468
Fukuyama,Japan,JP,34.4859,133.3623,Asia/Tokyo,459576
Lanús,Argentina,AR,-34.7,-58.4,America/Argentina/Buenos_Aires,459263
Manado Light,Indonesia,ID,1.4858,124.8347,Asia/Makassar,458582
Ţarţūs,Syria,SY,34.8833,35.8833,Asia/Damascus,458327
Kurnool,India,IN,15.8222,78.035,Asia/Kolkata,457633
Tallinn,Estonia,EE,59.4372,24.745,Europe/Tallinn,457572
Barura,Bangladesh,BD,23.36,91.05,Asia/Dhaka,456341
Amagasaki,Japan,JP,34.7338,135.4063,Asia/Tokyo,455555
Long Beach,United States,US,33.7977,-118.167,America/Los_Angeles,455548
Huadian,China,CN,42.9633,126.7478,Asia/Shanghai,455339
Melaka,Malaysia,MY,2.1889,102.2511,Asia/Kuala_Lumpur,455300
Manizales,Colombia,CO,5.0675,-75.51,America/Bogota,454494
Barcelona,Venezuela,VE,10.1362,-64.6862,America/Caracas,454200
Minzhu,China,CN,43.7192,127.337,Asia/Shanghai,453265
Pasay City,Philippines,PH,14.5439,120.995,Asia/Manila,453186
Bonita Springs,United States,US,26.3558,-81.7859,America/New_York,452793
Zürich,Switzerland,CH,47.3744,8.5411,Europe/Zurich,452421
Erköklü,Turkey,TR,37.8617,41.1442,Europe/Istanbul,452157
Demiryol,Turkey,TR,37.9167,41.15,Europe/Istanbul,452157
Kota Kinabalu,Malaysia,MY,5.975,116.0725,Asia/Kuching,452058
Katsushika-ku,Japan,JP,35.7434,139.8472,Asia/Tokyo,451772
Udaipur,India,IN,24.5833,73.6833,Asia/Kolkata,451100
Mogi das Cruzes,Brazil,BR,-23.5228,-46.1931,America/Sao_Paulo,450785
Stavropol,Russia,RU,45.05,41.9833,Europe/Moscow,450680
Warder,Ethiopia,ET,6.9667,45.3333,Africa/Addis_Ababa,450400
Betim,Brazil,BR,-19.9678,-44.1978,America/Sao_Paulo,450024
Sirājganj,Bangladesh,BD,24.45,89.7167,Asia/Dhaka,450000
Bắc Giang,Vietnam,VN,21.2731,106.1947,Asia/Bangkok,450000
Petare,Venezuela,VE,10.4833,-66.8167,America/Caracas,448861
Boise,United States,US,43.6005,-116.2308,America/Boise,448305
Eslāmshahr,Iran,IR,35.5522,51.235,Asia/Tehran,448129
Piraeus,Greece,GR,37.943,23.6469,Europe/Athens,448051
Matadi,Congo (Kinshasa),CD,-5.8167,13.4833,Africa/Kinshasa,448000
Tanbei,China,CN,35.0907,112.9317,Asia/Shanghai,447701
Pingquan,China,CN,41.0042,118.6848,Asia/Shanghai,446939
Ado-Ekiti,Nigeria,NG,7.6167,5.2167,Africa/Lagos,446749
Baisha,China,CN,29.4774,119.2853,Asia/Shanghai,446000
Batman,Turkey,TR,37.8833,41.1333,Europe/Istanbul,445874
Sochi,Russia,RU,43.5853,39.7203,Europe/Moscow,445149
Yongji,China,CN,34.867,110.4417,Asia/Shanghai,444724
Danjiangkou,China,CN,32.5408,111.5098,Asia/Shanghai,443755
Bogra,Bangladesh,BD,24.85,89.3667,Asia/Dhaka,443742
Winston-Salem,United States,US,36.1029,-80.261,America/New_York,443598
Kahramanmaraş,Turkey,TR,37.5875,36.9453,Europe/Istanbul,443575
San Nicolás de los Garza,Mexico,MX,25.7555,-100.2896,America/Monterrey,443273
Macapá,Brazil,BR,0.033,-51.0653,America/Belem,442933
Mathura,India,IN,27.4924,77.6737,Asia/Kolkata,441894
Korhogo,Côte d’Ivoire,CI,9.4578,-5.6294,Africa/Abidjan,440926
Ning’an,China,CN,44.3433,129.4617,Asia/Shanghai,440000
Halifax,Canada,CA,44.6475,-63.5906,America/Halifax,439819
Fujisawa,Japan,JP,35.3487,139.4837,Asia/Tokyo,439728
Oakland,United States,US,37.7904,-122.2166,America/Los_Angeles,439418
Augusta,United States,US,33.3645,-82.0708,America/New_York,439238
Springfield,United States,US,42.1155,-72.5395,America/New_York,439199
Laval,Canada,CA,45.5833,-73.75,America/Toronto,438366
Montes Claros,Brazil,BR,-16.7322,-43.8636,America/Sao_Paulo,437601
Sunch’ŏn,"Korea, North",KP,39.4167,125.9333,Asia/Pyongyang,437000
Mymensingh,Bangladesh,BD,24.75,90.4167,Asia/Dhaka,436857
Debre Birhan,Ethiopia,ET,9.6786,39.5333,Africa/Addis_Ababa,436711
Sāngli,India,IN,16.8667,74.5667,Asia/Kolkata,436639
Siguiri,Guinea,GN,11.4189,-9.1644,Africa/Conakry,436555
Lobito,Angola,AO,-12.35,13.5464,Africa/Luanda,436467
Davangere,India,IN,14.4667,75.9167,Asia/Kolkata,435125
Ulan-Ude,Russia,RU,51.8272,107.6064,Asia/Irkutsk,435067
Kursk,Russia,RU,51.7372,36.1872,Europe/Moscow,434696
Jian’ou,China,CN,27.0387,118.3215,Asia/Shanghai,434451
Machida,Japan,JP,35.5467,139.4386,Asia/Tokyo,434414
Sham Shui Po,Hong Kong,HK,22.3307,114.162,Asia/Hong_Kong,433500
Jiexiu,China,CN,37.0282,111.9103,Asia/Shanghai,432095
Santa Rosa,Philippines,PH,14.3167,121.1167,Asia/Manila,430920
Zanjān,Iran,IR,36.6667,48.4833,Asia/Tehran,430871
Awsīm,Egypt,EG,30.1222,31.1333,Africa/Cairo,430609
Corrientes,Argentina,AR,-27.4833,-58.8167,America/Argentina/Cordoba,430170
Huili Chengguanzhen,China,CN,26.6614,102.2469,Asia/Shanghai,430066
Masan,"Korea, South",KR,35.1833,128.55,Asia/Seoul,429612
Ţanţā,Egypt,EG,30.7833,31.0,Africa/Cairo,429503
Ismailia,Egypt,EG,30.5833,32.2667,Africa/Cairo,429465
Cusco,Peru,PE,-13.5169,-71.9786,America/Lima,428450
Wad Medani,Sudan,SD,14.4,33.51,Africa/Khartoum,428195
Sokoto,Nigeria,NG,13.0622,5.2339,Africa/Lagos,427760
Kashiwa,Japan,JP,35.8676,139.9758,Asia/Tokyo,427603
Malatya,Turkey,TR,38.3506,38.3094,Europe/Istanbul,426381
Mothīhāri,India,IN,26.65,84.9167,Asia/Kolkata,426158
Aomori,Japan,JP,40.8228,140.7469,Asia/Tokyo,425962
Tepic,Mexico,MX,21.5,-104.9,America/Mazatlan,425942
Akola,India,IN,20.7333,77.0,Asia/Kolkata,425817
Xingren,China,CN,25.4352,105.1907,Asia/Shanghai,425770
Aves,Portugal,PT,41.4423,-8.2967,Europe/Lisbon,425411
Xalapa,Mexico,MX,19.5312,-96.9159,America/Mexico_City,424755
Buenaventura,Colombia,CO,3.8772,-77.0267,America/Bogota,423927
London,Canada,CA,42.9836,-81.2497,America/Toronto,423369
Piracicaba,Brazil,BR,-22.7252,-47.6493,America/Sao_Paulo,423323
Santa Fe,Argentina,AR,-31.6333,-60.7,America/Argentina/Cordoba,423212
Tétouan,Morocco,MA,35.5667,-5.3667,Africa/Casablanca,422757
Yogyakarta,Indonesia,ID,-7.8005,110.3913,Asia/Jakarta,422732
Ciudad Bolívar,Venezuela,VE,8.1029,-63.547,America/Caracas,422578
Skopje,North Macedonia,MK,41.9961,21.4317,Europe/Skopje,422540
Toyota,Japan,JP,35.0824,137.1563,Asia/Tokyo,422106
Daloa,Côte d’Ivoire,CI,6.8667,-6.45,Africa/Abidjan,421879
Elazığ,Turkey,TR,38.6667,39.2167,Europe/Istanbul,421726
Hpa-An,Burma,MM,16.8906,97.6333,Asia/Yangon,421525
Kumi,"Korea, South",KR,36.21,128.3544,Asia/Seoul,421075
Durham,United States,US,35.9792,-78.9022,America/New_York,420564
Rahimyar Khan,Pakistan,PK,28.4206,70.3033,Asia/Karachi,420419
Surgut,Russia,RU,61.25,73.4333,Asia/Yekaterinburg,420347
Manisa,Turkey,TR,38.6119,27.4264,Europe/Istanbul,420015
Mishan,China,CN,45.542,131.8666,Asia/Shanghai,420000
Seremban,Malaysia,MY,2.7297,101.9381,Asia/Kuala_Lumpur,419536
Barishal,Bangladesh,BD,22.7,90.3667,Asia/Dhaka,419484
Campina Grande,Brazil,BR,-7.2306,-35.8811,America/Fortaleza,419379
Xicheng,China,CN,23.3629,103.1545,Asia/Shanghai,419314
Pencheng,China,CN,29.6792,115.6611,Asia/Shanghai,419047
Kowloon City,Hong Kong,HK,22.3289,114.1892,Asia/Hong_Kong,418732
Santos,Brazil,BR,-23.9336,-46.3286,America/Sao_Paulo,418608
Pensacola,United States,US,30.4413,-87.1911,America/Chicago,418489
Petrolina,Brazil,BR,-9.3928,-40.5078,America/Recife,418444
Taraz,Kazakhstan,KZ,42.8833,71.3667,Asia/Almaty,418368
Mauá,Brazil,BR,-23.6678,-46.4608,America/Sao_Paulo,418261
Da’an,China,CN,45.505,124.2863,Asia/Shanghai,418232
Luhansk,Ukraine,UA,48.5717,39.2973,Europe/Kyiv,417990
Takamatsu,Japan,JP,34.3428,134.0466,Asia/Tokyo,417814
Khon Kaen,Thailand,TH,16.4333,102.8333,Asia/Bangkok,416988
Arusha,Tanzania,TZ,-3.3667,36.6833,Africa/Dar_es_Salaam,416442
Fenyang,China,CN,37.2647,111.7775,Asia/Shanghai,416212
Nuevo Laredo,Mexico,MX,27.4774,-99.5252,America/Matamoros,416055
Ajdābiyā,Libya,LY,30.7556,20.2253,Africa/Tripoli,416000
Chattanooga,United States,US,35.066,-85.2481,America/New_York,415927
Shinagawa-ku,Japan,JP,35.6092,139.7302,Asia/Tokyo,415729
Bettiah,India,IN,26.8022,84.4986,Asia/Kolkata,414453
Jhang City,Pakistan,PK,31.2681,72.3181,Asia/Karachi,414131
Boa Vista,Brazil,BR,2.82,-60.6719,America/Boa_Vista,413486
Banjul,"Gambia, The",GM,13.4531,-16.5775,Africa/Banjul,413397
Jayapura,Indonesia,ID,-2.5333,140.7167,Asia/Jayapura,413283
Toyama,Japan,JP,36.6959,137.2137,Asia/Tokyo,413028
Tver,Russia,RU,56.8578,35.9219,Europe/Moscow,412806
Sanandaj,Iran,IR,35.3097,46.9989,Asia/Tehran,412767
Fangting,China,CN,31.1282,104.1695,Asia/Shanghai,412758
Koumassi,Côte d’Ivoire,CI,5.3,-3.95,Africa/Abidjan,412282
Alotau,Papua New Guinea,PG,-10.3167,150.4333,Pacific/Port_Moresby,412158
Tinnevelly,India,IN,8.7289,77.7081,Asia/Kolkata,411298
Pasto,Colombia,CO,1.21,-77.2747,America/Bogota,410835
Kaunas,Lithuania,LT,54.9,23.9333,Europe/Vilnius,410475
Bellary,India,IN,15.142,76.924,Asia/Kolkata,410445
Samannūd,Egypt,EG,30.9622,31.2425,Africa/Cairo,410388
Bhāgalpur,India,IN,25.25,87.0167,Asia/Kolkata,410210
Stockton,United States,US,37.9765,-121.3109,America/Los_Angeles,410053
Zhangjiakou Shi Xuanhua Qu,China,CN,40.6103,115.0447,Asia/Shanghai,409745
Maringá,Brazil,BR,-23.425,-51.9389,America/Sao_Paulo,409657
Mataram,Indonesia,ID,-8.5833,116.1167,Asia/Makassar,408900
Qianzhou,China,CN,28.3185,109.7318,Asia/Shanghai,408812
Magnitogorsk,Russia,RU,53.3833,59.0333,Asia/Yekaterinburg,408487
Fayetteville,United States,US,36.0714,-94.1661,America/Chicago,408133
Lancaster,United States,US,40.042,-76.3012,America/New_York,407719
Wanyuan,China,CN,32.0691,108.0351,Asia/Shanghai,407594
Shashemenē,Ethiopia,ET,7.2,38.5833,Africa/Addis_Ababa,407000
Nha Trang,Vietnam,VN,12.245,109.1917,Asia/Ho_Chi_Minh,407000
Hat Yai,Thailand,TH,7.0167,100.4667,Asia/Bangkok,406513
Patiāla,India,IN,30.5667,76.6333,Asia/Kolkata,406192
Đà Lạt,Vietnam,VN,11.94,108.4375,Asia/Ho_Chi_Minh,406105
Caruaru,Brazil,BR,-8.2828,-35.9758,America/Recife,405408
Carapicuíba,Brazil,BR,-23.5228,-46.8358,America/Sao_Paulo,405375
Nagasaki,Japan,JP,32.7495,129.8796,Asia/Tokyo,404656
Ijebu-Ode,Nigeria,NG,6.8249,3.9191,Africa/Lagos,404000
Salt Lake City,India,IN,22.61,88.4,Asia/Kolkata,403316
